1;Рас-эль-Хайма,РасэльХайма,Рас эль Хайма;{"name":"Рас-эль-Хайма","lat":25.78953,"lon":55.9432,"country":"AE","timezone":"Asia/Dubai","population":115949,"capital":"false","continent":"Asia"}
2;Дубай;{"name":"Дубай","lat":25.0657,"lon":55.17128,"country":"AE","timezone":"Asia/Dubai","population":1137347,"capital":"false","continent":"Asia"}
3;Шарджа;{"name":"Шарджа","lat":25.33737,"lon":55.41206,"country":"AE","timezone":"Asia/Dubai","population":543733,"capital":"false","continent":"Asia"}
4;Фуджейра;{"name":"Фуджейра","lat":25.11641,"lon":56.34141,"country":"AE","timezone":"Asia/Dubai","population":62415,"capital":"false","continent":"Asia"}
5;Эль-Айн,ЭльАйн,Эль Айн;{"name":"Эль-Айн","lat":24.19167,"lon":55.76056,"country":"AE","timezone":"Asia/Dubai","population":408733,"capital":"false","continent":"Asia"}
6;Аджман;{"name":"Аджман","lat":25.41111,"lon":55.43504,"country":"AE","timezone":"Asia/Dubai","population":226172 ,"capital":"false" ,"continent":"Asia"}
7;Абу-Даби,АбуДаби,Абу Даби;{"name":"Абу-Даби","lat":24.46667,"lon":54.36667,"country":"AE","timezone":"Asia/Dubai","population":603492,"capital":"true","continent":"Asia"}
8;Таликан,Талукан;{"name":"Таликан","lat":36.73605,"lon":69.53451,"country":"AF","timezone":"Asia/Kabul","population":64256,"capital":"false","continent":"Asia"}
9;Шеберган;{"name":"Шеберган","lat":36.66757,"lon":65.7529,"country":"AF","timezone":"Asia/Kabul","population":55641,"capital":"false","continent":"Asia"}
10;Сари-Пуль,СариПуль,Сари Пуль;{"name":"Сари-Пуль","lat":36.21544,"lon":65.93249,"country":"AF","timezone":"Asia/Kabul","population":52121,"capital":"false","continent":"Asia"}
11;Пули-Хумри,ПулиХумри,Пули Хумри;{"name":"Пули-Хумри","lat":35.94458,"lon":68.71512,"country":"AF","timezone":"Asia/Kabul","population":56369,"capital":"false","continent":"Asia"}
12;Меймене;{"name":"Меймене","lat":35.92139,"lon":64.78361,"country":"AF","timezone":"Asia/Kabul","population":75900,"capital":"false","continent":"Asia"}
13;Мазари-Шариф,МазариШариф,Мазари Шариф;{"name":"Мазари-Шариф","lat":36.70904,"lon":67.11087,"country":"AF","timezone":"Asia/Kabul","population":303282,"capital":"false","continent":"Asia"}
14;Кундуз;{"name":"Кундуз","lat":36.72895,"lon":68.857,"country":"AF","timezone":"Asia/Kabul","population":161902,"capital":"false","continent":"Asia"}
15;Хост;{"name":"Хост","lat":33.33951,"lon":69.92041,"country":"AF","timezone":"Asia/Kabul","population":96123,"capital":"false","continent":"Asia"}
16;Ташкурган;{"name":"Ташкурган","lat":36.69736,"lon":67.69826,"country":"AF","timezone":"Asia/Kabul","population":64933,"capital":"false","continent":"Asia"}
17;Ханабад;{"name":"Ханабад","lat":36.6825,"lon":69.11556,"country":"AF","timezone":"Asia/Kabul","population":71531,"capital":"false","continent":"Asia"}
18;Кандагар;{"name":"Кандагар","lat":31.61332,"lon":65.71013,"country":"AF","timezone":"Asia/Kabul","population":391190,"capital":"false","continent":"Asia"}
19;Кабул;{"name":"Кабул","lat":34.52813,"lon":69.17233,"country":"AF","timezone":"Asia/Kabul","population":3043532,"capital":"true","continent":"Asia"}
20;Джелалабад;{"name":"Джелалабад","lat":34.42647,"lon":70.45153,"country":"AF","timezone":"Asia/Kabul","population":200331,"capital":"false","continent":"Asia"}
21;Герат;{"name":"Герат","lat":34.34817,"lon":62.19967,"country":"AF","timezone":"Asia/Kabul","population":272806,"capital":"false","continent":"Asia"}
22;Газни;{"name":"Газни","lat":33.55391,"lon":68.42096,"country":"AF","timezone":"Asia/Kabul","population":141000,"capital":"false","continent":"Asia"}
23;Гардез;{"name":"Гардез","lat":33.59744,"lon":69.22592,"country":"AF","timezone":"Asia/Kabul","population":103601,"capital":"false","continent":"Asia"}
24;Чарикар;{"name":"Чарикар","lat":35.01361,"lon":69.17139,"country":"AF","timezone":"Asia/Kabul","population":53676,"capital":"false","continent":"Asia"}
25;Бамиан;{"name":"Бамиан","lat":34.82156,"lon":67.82734,"country":"AF","timezone":"Asia/Kabul","population":61863 ,"capital":"false" ,"continent":"Asia"}
26;Балх,Вазирабад;{"name":"Балх","lat":36.75635,"lon":66.8972,"country":"AF","timezone":"Asia/Kabul","population":114883,"capital":"false","continent":"Asia"}
27;Баглан;{"name":"Баглан","lat":36.13068,"lon":68.70829,"country":"AF","timezone":"Asia/Kabul","population":108449,"capital":"false","continent":"Asia"}
28;Базарак;{"name":"Базарак","lat":35.31292,"lon":69.51519,"country":"AF","timezone":"Asia/Kabul","population":65000,"capital":"false","continent":"Asia"}
29;Корча;{"name":"Корча","lat":40.61861,"lon":20.78083,"country":"AL","timezone":"Europe/Tirane","population":58259,"capital":"false","continent":"Europe"}
30;Эльбасан;{"name":"Эльбасан","lat":41.1125,"lon":20.08222,"country":"AL","timezone":"Europe/Tirane","population":100903,"capital":"false","continent":"Europe"}
31;Влёра;{"name":"Влёра","lat":40.46667,"lon":19.48972,"country":"AL","timezone":"Europe/Tirane","population":89546,"capital":"false","continent":"Europe"}
32;Тирана;{"name":"Тирана","lat":41.3275,"lon":19.81889,"country":"AL","timezone":"Europe/Tirane","population":374801,"capital":"true","continent":"Europe"}
33;Шкодер;{"name":"Шкодер","lat":42.06828,"lon":19.51258,"country":"AL","timezone":"Europe/Tirane","population":88245,"capital":"false","continent":"Europe"}
34;Фиер-Чифчи;{"name":"Фиер-Чифчи","lat":40.71667,"lon":19.56667,"country":"AL","timezone":"Europe/Tirane","population":60995,"capital":"false","continent":"Europe"}
35;Фиери;{"name":"Фиери","lat":40.72389,"lon":19.55611,"country":"AL","timezone":"Europe/Tirane","population":56297,"capital":"false","continent":"Europe"}
36;Дуррес;{"name":"Дуррес","lat":41.32306,"lon":19.44139,"country":"AL","timezone":"Europe/Tirane","population":122034,"capital":"false","continent":"Europe"}
37;Ереван;{"name":"Ереван","lat":40.18111,"lon":44.51361,"country":"AM","timezone":"Asia/Yerevan","population":1093485,"capital":"true","continent":"Asia"}
38;Кировакан,Ванадзор;{"name":"Кировакан","lat":40.80456,"lon":44.4939,"country":"AM","timezone":"Asia/Yerevan","population":101098,"capital":"false","continent":"Asia"}
39;Гюмри;{"name":"Гюмри","lat":40.7942,"lon":43.84528,"country":"AM","timezone":"Asia/Yerevan","population":148381,"capital":"false","continent":"Asia"}
40;Уиже;{"name":"Уиже","lat":-7.60874,"lon":15.06131,"country":"AO","timezone":"Africa/Luanda","population":60008,"capital":"false","continent":"Africa"}
41;Сойу;{"name":"Сойу","lat":-6.1349,"lon":12.36894,"country":"AO","timezone":"Africa/Luanda","population":67491,"capital":"false","continent":"Africa"}
42;Ндалатандо;{"name":"Ндалатандо","lat":-9.29782,"lon":14.91162,"country":"AO","timezone":"Africa/Luanda","population":383100 ,"capital":"false" ,"continent":"Africa"}
43;Маланже;{"name":"Маланже","lat":-9.54015,"lon":16.34096,"country":"AO","timezone":"Africa/Luanda","population":87046,"capital":"false","continent":"Africa"}
44;Луанда;{"name":"Луанда","lat":-8.83682,"lon":13.23432,"country":"AO","timezone":"Africa/Luanda","population":2776168,"capital":"true","continent":"Africa"}
45;Кабинда;{"name":"Кабинда","lat":-5.55,"lon":12.2,"country":"AO","timezone":"Africa/Luanda","population":66020,"capital":"false","continent":"Africa"}
46;Намибе;{"name":"Намибе","lat":-15.19611,"lon":12.15222,"country":"AO","timezone":"Africa/Luanda","population":80149,"capital":"false","continent":"Africa"}
47;Лубанго;{"name":"Лубанго","lat":-14.91717,"lon":13.4925,"country":"AO","timezone":"Africa/Luanda","population":102541,"capital":"false","continent":"Africa"}
48;Лобиту;{"name":"Лобиту","lat":-12.3644,"lon":13.53601,"country":"AO","timezone":"Africa/Luanda","population":207932,"capital":"false","continent":"Africa"}
49;Куито;{"name":"Куито","lat":-12.38333,"lon":16.93333,"country":"AO","timezone":"Africa/Luanda","population":113624,"capital":"true","continent":"Africa"}
50;Уамбо;{"name":"Уамбо","lat":-12.77611,"lon":15.73917,"country":"AO","timezone":"Africa/Luanda","population":226145,"capital":"false","continent":"Africa"}
51;Бенгела;{"name":"Бенгела","lat":-12.57626,"lon":13.40547,"country":"AO","timezone":"Africa/Luanda","population":151226,"capital":"false","continent":"Africa"}
52;Зарате;{"name":"Зарате","lat":-34.09814,"lon":-59.02858,"country":"AR","timezone":"America/Argentina/Buenos_Aires","population":88781,"capital":"false","continent":"America"}
53;Вилья Лугано;{"name":"Вилья Лугано","lat":-34.67907,"lon":-58.47263,"country":"AR","timezone":"America/Argentina/Buenos_Aires","population":114000 ,"capital":"false" ,"continent":"America"}
54;Тандиль;{"name":"Тандиль","lat":-37.32167,"lon":-59.13316,"country":"AR","timezone":"America/Argentina/Buenos_Aires","population":104325,"capital":"false","continent":"America"}
55;Ресистенсия;{"name":"Ресистенсия","lat":-27.46056,"lon":-58.98389,"country":"AR","timezone":"America/Argentina/Cordoba","population":387158,"capital":"false","continent":"America"}
56;Реконкиста;{"name":"Реконкиста","lat":-29.15,"lon":-59.65,"country":"AR","timezone":"America/Argentina/Cordoba","population":90184,"capital":"false","continent":"America"}
57;Кильмес;{"name":"Кильмес","lat":-34.72904,"lon":-58.26374,"country":"AR","timezone":"America/Argentina/Buenos_Aires","population":518788,"capital":"false","continent":"America"}
58;Пуэрто-Эльдорадо;{"name":"Пуэрто-Эльдорадо","lat":-26.40843,"lon":-54.69463,"country":"AR","timezone":"America/Argentina/Cordoba","population":54189,"capital":"false","continent":"America"}
59;Посадас;{"name":"Посадас","lat":-27.36708,"lon":-55.89608,"country":"AR","timezone":"America/Argentina/Cordoba","population":323739,"capital":"false","continent":"America"}
60;Обера;{"name":"Обера","lat":-27.48706,"lon":-55.11994,"country":"AR","timezone":"America/Argentina/Cordoba","population":56528,"capital":"false","continent":"America"}
61;Некочеа;{"name":"Некочеа","lat":-38.5545,"lon":-58.73961,"country":"AR","timezone":"America/Argentina/Buenos_Aires","population":80478 ,"capital":"false" ,"continent":"America"}
62;Морон;{"name":"Морон","lat":-34.6509,"lon":-58.61956,"country":"AR","timezone":"America/Argentina/Buenos_Aires","population":319934,"capital":"false","continent":"America"}
63;Мерседес;{"name":"Мерседес","lat":-34.65145,"lon":-59.43068,"country":"AR","timezone":"America/Argentina/Buenos_Aires","population":52949 ,"capital":"false" ,"continent":"America"}
64;Мар-дель-Плата,МардельПлата,Мар дель Плата;{"name":"Мар-дель-Плата","lat":-38.00228,"lon":-57.55754,"country":"AR","timezone":"America/Argentina/Buenos_Aires","population":553935,"capital":"false","continent":"America"}
65;Лухан;{"name":"Лухан","lat":-34.57028,"lon":-59.105,"country":"AR","timezone":"America/Argentina/Buenos_Aires","population":81749,"capital":"false","continent":"America"}
66;Ла-Плата,ЛаПлата,Ла Плата;{"name":"Ла-Плата","lat":-34.92145,"lon":-57.95453,"country":"AR","timezone":"America/Argentina/Buenos_Aires","population":694167,"capital":"false","continent":"America"}
67;Гуалегуайчу;{"name":"Гуалегуайчу","lat":-33.00937,"lon":-58.51722,"country":"AR","timezone":"America/Argentina/Cordoba","population":78676,"capital":"false","continent":"America"}
68;Гойя;{"name":"Гойя","lat":-29.14395,"lon":-59.2651,"country":"AR","timezone":"America/Argentina/Cordoba","population":70245,"capital":"false","continent":"America"}
69;Формоза,Формоса;{"name":"Формоза","lat":-26.17753,"lon":-58.17814,"country":"AR","timezone":"America/Argentina/Cordoba","population":221383,"capital":"false","continent":"America"}
70;Корриентес;{"name":"Корриентес","lat":-27.4806,"lon":-58.8341,"country":"AR","timezone":"America/Argentina/Cordoba","population":339067,"capital":"false","continent":"America"}
71;Конкордия;{"name":"Конкордия","lat":-31.39296,"lon":-58.02089,"country":"AR","timezone":"America/Argentina/Cordoba","population":145210,"capital":"false","continent":"America"}
72;Консепсьон-дель-Уругвай,КонсепсьондельУругвай,Консепсьон дель Уругвай;{"name":"Консепсьон-дель-Уругвай","lat":-32.48249,"lon":-58.23722,"country":"AR","timezone":"America/Argentina/Cordoba","population":67895,"capital":"true","continent":"America"}
73;Колехьялес;{"name":"Колехьялес","lat":-34.57365,"lon":-58.44924,"country":"AR","timezone":"America/Argentina/Buenos_Aires","population":57000 ,"capital":"false" ,"continent":"America"}
74;Кампана;{"name":"Кампана","lat":-34.16874,"lon":-58.95914,"country":"AR","timezone":"America/Argentina/Buenos_Aires","population":81612,"capital":"false","continent":"America"}
75;Буэнос-Айрес,БуэносАйрес,Буэнос Айрес;{"name":"Буэнос-Айрес","lat":-34.61315,"lon":-58.37723,"country":"AR","timezone":"America/Argentina/Buenos_Aires","population":13076300,"capital":"true","continent":"America"}
76;Барранкерас;{"name":"Барранкерас","lat":-27.48132,"lon":-58.93925,"country":"AR","timezone":"America/Argentina/Cordoba","population":50823 ,"capital":"false" ,"continent":"America"}
77;Азул;{"name":"Азул","lat":-36.77698,"lon":-59.85854,"country":"AR","timezone":"America/Argentina/Buenos_Aires","population":53941,"capital":"false","continent":"America"}
78;Йерба-Буэна;{"name":"Йерба-Буэна","lat":-26.81667,"lon":-65.31667,"country":"AR","timezone":"America/Argentina/Tucuman","population":50783 ,"capital":"false" ,"continent":"America"}
79;Вилья-Мария;{"name":"Вилья-Мария","lat":-32.40751,"lon":-63.24016,"country":"AR","timezone":"America/Argentina/Cordoba","population":92453 ,"capital":"false" ,"continent":"America"}
80;Карлос-Паз,Вилья-Карлос-Пас,КарлосПаз,ВильяКарлосПас,Карлос Паз,Вилья Карлос Пас;{"name":"Карлос-Паз","lat":-31.42414,"lon":-64.49778,"country":"AR","timezone":"America/Argentina/Cordoba","population":69451,"capital":"false","continent":"America"}
81;Неукен;{"name":"Неукен","lat":-38.95161,"lon":-68.0591,"country":"AR","timezone":"America/Argentina/Salta","population":242092,"capital":"false","continent":"America"}
82;Ушуая;{"name":"Ушуая","lat":-54.8,"lon":-68.3,"country":"AR","timezone":"America/Argentina/Ushuaia","population":58028,"capital":"false","continent":"America"}
83;Трелью;{"name":"Трелью","lat":-43.24895,"lon":-65.30505,"country":"AR","timezone":"America/Argentina/Catamarca","population":93442 ,"capital":"false" ,"continent":"America"}
84;Тартагал;{"name":"Тартагал","lat":-22.51637,"lon":-63.80131,"country":"AR","timezone":"America/Argentina/Salta","population":60819,"capital":"false","continent":"America"}
85;Сан-Томе;{"name":"Сан-Томе","lat":-31.66274,"lon":-60.7653,"country":"AR","timezone":"America/Argentina/Cordoba","population":59072 ,"capital":"false" ,"continent":"America"}
86;Сантьяго-дель-Эстеро,СантьягодельЭстеро,Сантьяго дель Эстеро;{"name":"Сантьяго-дель-Эстеро","lat":-27.79511,"lon":-64.26149,"country":"AR","timezone":"America/Argentina/Cordoba","population":354692,"capital":"false","continent":"America"}
87;Санта-Роса,СантаРоса,Санта Роса;{"name":"Санта-Роса","lat":14.31222,"lon":121.11139,"country":"PH","timezone":"Asia/Manila","population":216650,"capital":"false","continent":"Asia"}
88;Санта-Фе,СантаФе,Санта Фе;{"name":"Санта-Фе","lat":-31.63333,"lon":-60.7,"country":"AR","timezone":"America/Argentina/Cordoba","population":489505,"capital":"false","continent":"America"}
89;Сан Сальвадор де Жужуй,Хухуй,Сан Сальвадор де Хухуй,Сан-Сальвадор-де-Жужуй,Хухуй,СанСальвадордеЖужуй;{"name":"Сан Сальвадор де Жужуй","lat":-24.19457,"lon":-65.29712,"country":"AR","timezone":"America/Argentina/Jujuy","population":305891,"capital":"false","continent":"America"}
90;Сан-Рамон-де-ла-Нуэва-Оран,СанРамонделаНуэваОран,Сан Рамон де ла Нуэва Оран;{"name":"Сан-Рамон-де-ла-Нуэва-Оран","lat":-23.13705,"lon":-64.32426,"country":"AR","timezone":"America/Argentina/Salta","population":74059,"capital":"false","continent":"America"}
91;Сан-Рафаэль,СанРафаэль,Сан Рафаэль;{"name":"Сан-Рафаэль","lat":-34.61772,"lon":-68.33007,"country":"AR","timezone":"America/Argentina/Mendoza","population":109163,"capital":"false","continent":"America"}
92;Сан-Педро;{"name":"Сан-Педро","lat":14.3595,"lon":121.0473,"country":"PH","timezone":"Asia/Manila","population":270216 ,"capital":"false" ,"continent":"Asia"}
93;Сан-Николас;{"name":"Сан-Николас","lat":-33.33578,"lon":-60.22523,"country":"AR","timezone":"America/Argentina/Buenos_Aires","population":127742 ,"capital":"false" ,"continent":"America"}
94;Сан-Мигель-де-Тукуман,СанМигельдеТукуман,Сан Мигель де Тукуман;{"name":"Сан-Мигель-де-Тукуман","lat":-26.82414,"lon":-65.2226,"country":"AR","timezone":"America/Argentina/Tucuman","population":781023,"capital":"false","continent":"America"}
95;Сан-Мартин;{"name":"Сан-Мартин","lat":-33.08103,"lon":-68.46814,"country":"AR","timezone":"America/Argentina/Mendoza","population":82549 ,"capital":"false" ,"continent":"America"}
96;Сан-Луис,СанЛуис,Сан Луис;{"name":"Сан-Луис","lat":-2.52972,"lon":-44.30278,"country":"BR","timezone":"America/Fortaleza","population":917237,"capital":"false","continent":"America"}
97;Сан-Хуан,СанХуан,Сан Хуан;{"name":"Сан-Хуан","lat":-31.5375,"lon":-68.53639,"country":"AR","timezone":"America/Argentina/San_Juan","population":447048,"capital":"false","continent":"America"}
98;Сан-Франциско;{"name":"Сан-Франциско","lat":-31.42797,"lon":-62.08266,"country":"AR","timezone":"America/Argentina/Cordoba","population":59062 ,"capital":"false" ,"continent":"America"}
99;Сан-Фернандо-дель-Валье-де-Катамарка,СанФернандодельВальедеКатамарка,Сан Фернандо дель Валье де Катамарка;{"name":"Сан-Фернандо-дель-Валье-де-Катамарка","lat":-28.46957,"lon":-65.78524,"country":"AR","timezone":"America/Argentina/Catamarca","population":188812,"capital":"false","continent":"America"}
100;Сальта;{"name":"Сальта","lat":-24.7859,"lon":-65.41166,"country":"AR","timezone":"America/Argentina/Salta","population":512686,"capital":"false","continent":"America"}
101;Росарио;{"name":"Росарио","lat":-32.94682,"lon":-60.63932,"country":"AR","timezone":"America/Argentina/Cordoba","population":1173533,"capital":"false","continent":"America"}
102;Рио Терсеро;{"name":"Рио Терсеро","lat":-32.17301,"lon":-64.11405,"country":"AR","timezone":"America/Argentina/Cordoba","population":53389 ,"capital":"false" ,"continent":"America"}
103;Рио-Гальегос,РиоГальегос,Рио Гальегос;{"name":"Рио-Гальегос","lat":-51.62261,"lon":-69.21813,"country":"AR","timezone":"America/Argentina/Rio_Gallegos","population":85700,"capital":"false","continent":"America"}
104;Рио-Куарто,РиоКуарто,Рио Куарто;{"name":"Рио-Куарто","lat":-33.13067,"lon":-64.34992,"country":"AR","timezone":"America/Argentina/Cordoba","population":153757,"capital":"false","continent":"America"}
105;Рафаэла;{"name":"Рафаэла","lat":-31.25033,"lon":-61.4867,"country":"AR","timezone":"America/Argentina/Cordoba","population":88713,"capital":"false","continent":"America"}
106;Пунта-Альта,ПунтаАльта,Пунта Альта;{"name":"Пунта-Альта","lat":-38.87588,"lon":-62.07359,"country":"AR","timezone":"America/Argentina/Buenos_Aires","population":57209,"capital":"false","continent":"America"}
107;Пуэрто-Мадрин,ПуэртоМадрин,Пуэрто Мадрин;{"name":"Пуэрто-Мадрин","lat":-42.7692,"lon":-65.03851,"country":"AR","timezone":"America/Argentina/Catamarca","population":64555,"capital":"false","continent":"America"}
108;Пресиденсия Роке Саэнс Пенья;{"name":"Пресиденсия Роке Саэнс Пенья","lat":-26.78522,"lon":-60.43876,"country":"AR","timezone":"America/Argentina/Cordoba","population":81879 ,"capital":"false" ,"continent":"America"}
109;Пергамино;{"name":"Пергамино","lat":-33.88995,"lon":-60.57357,"country":"AR","timezone":"America/Argentina/Buenos_Aires","population":87652,"capital":"false","continent":"America"}
110;Парана;{"name":"Парана","lat":-31.73197,"lon":-60.5238,"country":"AR","timezone":"America/Argentina/Cordoba","population":262295,"capital":"false","continent":"America"}
111;Олаваррия;{"name":"Олаваррия","lat":-36.89272,"lon":-60.32254,"country":"AR","timezone":"America/Argentina/Buenos_Aires","population":86320,"capital":"false","continent":"America"}
112;Мендоса;{"name":"Мендоса","lat":-32.89084,"lon":-68.82717,"country":"AR","timezone":"America/Argentina/Mendoza","population":876884,"capital":"false","continent":"America"}
113;Ла-Риоха,ЛаРиоха,Ла Риоха;{"name":"Ла-Риоха","lat":-29.41105,"lon":-66.85067,"country":"AR","timezone":"America/Argentina/La_Rioja","population":162620,"capital":"false","continent":"America"}
114;Хунин;{"name":"Хунин","lat":-34.58382,"lon":-60.94332,"country":"AR","timezone":"America/Argentina/Buenos_Aires","population":85007 ,"capital":"false" ,"continent":"America"}
115;Гобернадор Гальвес;{"name":"Гобернадор Гальвес","lat":-33.03016,"lon":-60.64045,"country":"AR","timezone":"America/Argentina/Cordoba","population":74650 ,"capital":"false" ,"continent":"America"}
116;Хенераль;{"name":"Хенераль","lat":-39.03333,"lon":-67.58333,"country":"AR","timezone":"America/Argentina/Salta","population":73212,"capital":"false","continent":"America"}
117;Хенераль-Пико;{"name":"Хенераль-Пико","lat":-35.65662,"lon":-63.75682,"country":"AR","timezone":"America/Argentina/Salta","population":57029 ,"capital":"false" ,"continent":"America"}
118;Кордова;{"name":"Кордова","lat":-31.4135,"lon":-64.18105,"country":"AR","timezone":"America/Argentina/Cordoba","population":1428214,"capital":"false","continent":"America"}
119;Комодоро-Ривадавия,КомодороРивадавия,Комодоро Ривадавия;{"name":"Комодоро-Ривадавия","lat":-45.86413,"lon":-67.49656,"country":"AR","timezone":"America/Argentina/Catamarca","population":140850,"capital":"false","continent":"America"}
120;Чиполлетти;{"name":"Чиполлетти","lat":-38.93392,"lon":-67.99032,"country":"AR","timezone":"America/Argentina/Salta","population":75078,"capital":"false","continent":"America"}
121;Чивилькой;{"name":"Чивилькой","lat":-34.89566,"lon":-60.01667,"country":"AR","timezone":"America/Argentina/Buenos_Aires","population":54514 ,"capital":"false" ,"continent":"America"}
122;Чимбас;{"name":"Чимбас","lat":-31.48333,"lon":-68.53333,"country":"AR","timezone":"America/Argentina/San_Juan","population":73829,"capital":"false","continent":"America"}
123;Байя-Бланка,Баия-Бланка,БайяБланка,БаияБланка,Байя Бланка,Баия Бланка;{"name":"Байя-Бланка","lat":-38.71959,"lon":-62.27243,"country":"AR","timezone":"America/Argentina/Buenos_Aires","population":276546,"capital":"false","continent":"America"}
124;Вилья Мерседес;{"name":"Вилья Мерседес","lat":-33.67571,"lon":-65.45783,"country":"AR","timezone":"America/Argentina/San_Luis","population":96781 ,"capital":"false" ,"continent":"America"}
125;Сан Карлос де Барилоче,Сан-Карлос-де-Барилоче,СанКарлосдеБарилоче;{"name":"Сан Карлос де Барилоче","lat":-41.14557,"lon":-71.30822,"country":"AR","timezone":"America/Argentina/Salta","population":95394,"capital":"false","continent":"America"}
126;Вена;{"name":"Вена","lat":48.20849,"lon":16.37208,"country":"AT","timezone":"Europe/Vienna","population":1691468,"capital":"true","continent":"Europe"}
127;Вельс;{"name":"Вельс","lat":48.16667,"lon":14.03333,"country":"AT","timezone":"Europe/Vienna","population":57946,"capital":"false","continent":"Europe"}
128;Филлах;{"name":"Филлах","lat":46.61028,"lon":13.85583,"country":"AT","timezone":"Europe/Vienna","population":58882,"capital":"false","continent":"Europe"}
129;Зальцбург;{"name":"Зальцбург","lat":47.79941,"lon":13.04399,"country":"AT","timezone":"Europe/Vienna","population":150269,"capital":"false","continent":"Europe"}
130;Линц;{"name":"Линц","lat":48.30639,"lon":14.28611,"country":"AT","timezone":"Europe/Vienna","population":181162,"capital":"false","continent":"Europe"}
131;Клагенфурт;{"name":"Клагенфурт","lat":46.62472,"lon":14.30528,"country":"AT","timezone":"Europe/Vienna","population":90610,"capital":"false","continent":"Europe"}
132;Инсбрук;{"name":"Инсбрук","lat":47.26266,"lon":11.39454,"country":"AT","timezone":"Europe/Vienna","population":112467,"capital":"false","continent":"Europe"}
133;Грац;{"name":"Грац","lat":47.06667,"lon":15.45,"country":"AT","timezone":"Europe/Vienna","population":222326,"capital":"false","continent":"Europe"}
134;Рокингем;{"name":"Рокингем","lat":-32.27682,"lon":115.72978,"country":"AU","timezone":"Australia/Perth","population":108022 ,"capital":"false" ,"continent":"Australia"}
135;Перт;{"name":"Перт","lat":-31.95224,"lon":115.8614,"country":"AU","timezone":"Australia/Perth","population":1896548,"capital":"false","continent":"Australia"}
136;Мандъюра,Манджера;{"name":"Мандъюра","lat":-32.5269,"lon":115.7217,"country":"AU","timezone":"Australia/Perth","population":83294,"capital":"false","continent":"Australia"}
137;Дарвин;{"name":"Дарвин","lat":-12.46113,"lon":130.84184,"country":"AU","timezone":"Australia/Darwin","population":129062,"capital":"false","continent":"Australia"}
138;Банбери;{"name":"Банбери","lat":-33.32711,"lon":115.64137,"country":"AU","timezone":"Australia/Perth","population":68248,"capital":"false","continent":"Australia"}
139;Армадейл;{"name":"Армадейл","lat":-32.14607,"lon":116.0093,"country":"AU","timezone":"Australia/Perth","population":62296,"capital":"false","continent":"Australia"}
140;Аделаида;{"name":"Аделаида","lat":-34.92866,"lon":138.59863,"country":"AU","timezone":"Australia/Adelaide","population":1225235,"capital":"false","continent":"Australia"}
141;Таунсвилл;{"name":"Таунсвилл","lat":-19.26639,"lon":146.8057,"country":"AU","timezone":"Australia/Brisbane","population":196219,"capital":"false","continent":"Australia"}
142;Тувумба;{"name":"Тувумба","lat":-27.56056,"lon":151.95386,"country":"AU","timezone":"Australia/Brisbane","population":131258,"capital":"false","continent":"Australia"}
143;Сидней;{"name":"Сидней","lat":-33.86785,"lon":151.20732,"country":"AU","timezone":"Australia/Sydney","population":4627345,"capital":"false","continent":"Australia"}
144;Рокхемптон,Рокгемптон;{"name":"Рокхемптон","lat":-23.38032,"lon":150.50595,"country":"AU","timezone":"Australia/Brisbane","population":61724,"capital":"false","continent":"Australia"}
145;Ньюкасл;{"name":"Ньюкасл","lat":-32.92715,"lon":151.77647,"country":"AU","timezone":"Australia/Sydney","population":308308,"capital":"false","continent":"Australia"}
146;Мельбурн;{"name":"Мельбурн","lat":-37.814,"lon":144.96332,"country":"AU","timezone":"Australia/Melbourne","population":4246375,"capital":"false","continent":"Australia"}
147;Мейтленд,Мэйтленд;{"name":"Мейтленд","lat":-32.73308,"lon":151.5574,"country":"AU","timezone":"Australia/Sydney","population":67132,"capital":"false","continent":"Australia"}
148;Макей,Маккай;{"name":"Макей","lat":-21.15345,"lon":149.16554,"country":"AU","timezone":"Australia/Brisbane","population":74219,"capital":"false","continent":"Australia"}
149;Лонсестон;{"name":"Лонсестон","lat":-41.43876,"lon":147.13467,"country":"AU","timezone":"Australia/Hobart","population":106153,"capital":"false","continent":"Australia"}
150;Хобарт;{"name":"Хобарт","lat":-42.87936,"lon":147.3294,"country":"AU","timezone":"Australia/Hobart","population":216656,"capital":"false","continent":"Australia"}
151;Голд Коуст;{"name":"Голд Коуст","lat":-28.00029,"lon":153.43088,"country":"AU","timezone":"Australia/Brisbane","population":591473,"capital":"false","continent":"Australia"}
152;Джилонг,Джелонг;{"name":"Джилонг","lat":-38.14711,"lon":144.36069,"country":"AU","timezone":"Australia/Melbourne","population":226034,"capital":"false","continent":"Australia"}
153;Вуллонгонг;{"name":"Вуллонгонг","lat":-34.424,"lon":150.89345,"country":"AU","timezone":"Australia/Sydney","population":292190,"capital":"false","continent":"Australia"}
154;Канберра;{"name":"Канберра","lat":-35.28346,"lon":149.12807,"country":"AU","timezone":"Australia/Sydney","population":367752,"capital":"true","continent":"Australia"}
155;Кернс,Кэрнс;{"name":"Кернс","lat":-16.92304,"lon":145.76625,"country":"AU","timezone":"Australia/Brisbane","population":153075,"capital":"false","continent":"Australia"}
156;Бандаберг;{"name":"Бандаберг","lat":-24.86621,"lon":152.3479,"country":"AU","timezone":"Australia/Brisbane","population":70826,"capital":"false","continent":"Australia"}
157;Брисбен;{"name":"Брисбен","lat":-27.46794,"lon":153.02809,"country":"AU","timezone":"Australia/Brisbane","population":2189878,"capital":"false","continent":"Australia"}
158;Бендиго;{"name":"Бендиго","lat":-36.75818,"lon":144.28024,"country":"AU","timezone":"Australia/Melbourne","population":100617,"capital":"false","continent":"Australia"}
159;Балларат;{"name":"Балларат","lat":-37.56622,"lon":143.84956,"country":"AU","timezone":"Australia/Melbourne","population":97937,"capital":"false","continent":"Australia"}
160;Саут-Брисбен;{"name":"Саут-Брисбен","lat":-27.48034,"lon":153.0205,"country":"AU","timezone":"Australia/Brisbane","population":60000 ,"capital":"false" ,"continent":"Australia"}
161;Логан;{"name":"Логан","lat":-27.63917,"lon":153.10944,"country":"AU","timezone":"Australia/Brisbane","population":282673 ,"capital":"false" ,"continent":"Australia"}
162;Степанакерт;{"name":"Степанакерт","lat":39.8177,"lon":46.7528,"country":"AZ","timezone":"Asia/Baku","population":53100,"capital":"false","continent":"Asia"}
163;Саатлы;{"name":"Саатлы","lat":39.93214,"lon":48.36892,"country":"AZ","timezone":"Asia/Baku","population":87000,"capital":"false","continent":"Asia"}
164;Нахичевань;{"name":"Нахичевань","lat":39.20889,"lon":45.41222,"country":"AZ","timezone":"Asia/Baku","population":64754,"capital":"false","continent":"Asia"}
165;Ленкорань,Лянкяран;{"name":"Ленкорань","lat":38.75428,"lon":48.85062,"country":"AZ","timezone":"Asia/Baku","population":240300,"capital":"false","continent":"Asia"}
166;Ширван,Али-Байрамлы,Ширван,АлиБайрамлы,Ширван,Али Байрамлы;{"name":"Ширван","lat":39.93778,"lon":48.929,"country":"AZ","timezone":"Asia/Baku","population":70220,"capital":"false","continent":"Asia"}
167;Евлах;{"name":"Евлах","lat":40.61832,"lon":47.15014,"country":"AZ","timezone":"Asia/Baku","population":59036,"capital":"false","continent":"Asia"}
168;Сумгаит;{"name":"Сумгаит","lat":40.58972,"lon":49.66861,"country":"AZ","timezone":"Asia/Baku","population":265150,"capital":"false","continent":"Asia"}
169;Гарачухур;{"name":"Гарачухур","lat":40.39667,"lon":49.97361,"country":"AZ","timezone":"Asia/Baku","population":72989,"capital":"false","continent":"Asia"}
170;Шеки;{"name":"Шеки","lat":41.19194,"lon":47.17056,"country":"AZ","timezone":"Asia/Baku","population":63000,"capital":"false","continent":"Asia"}
171;Мингечаур;{"name":"Мингечаур","lat":40.76395,"lon":47.05953,"country":"AZ","timezone":"Asia/Baku","population":95453,"capital":"false","continent":"Asia"}
172;Гянджа;{"name":"Гянджа","lat":40.68278,"lon":46.36056,"country":"AZ","timezone":"Asia/Baku","population":313300,"capital":"false","continent":"Asia"}
173;Баку;{"name":"Баку","lat":40.37767,"lon":49.89201,"country":"AZ","timezone":"Asia/Baku","population":1116513,"capital":"true","continent":"Asia"}
174;Бакиханова;{"name":"Бакиханова","lat":40.41894,"lon":49.96693,"country":"AZ","timezone":"Asia/Baku","population":66686,"capital":"false","continent":"Asia"}
175;Зеница;{"name":"Зеница","lat":44.20169,"lon":17.90397,"country":"BA","timezone":"Europe/Sarajevo","population":164423,"capital":"false","continent":"Europe"}
176;Тузла;{"name":"Тузла","lat":44.53842,"lon":18.66709,"country":"BA","timezone":"Europe/Sarajevo","population":142486,"capital":"false","continent":"Europe"}
177;Сараево;{"name":"Сараево","lat":43.84864,"lon":18.35644,"country":"BA","timezone":"Europe/Sarajevo","population":696731,"capital":"true","continent":"Europe"}
178;Мостар;{"name":"Мостар","lat":43.34333,"lon":17.80806,"country":"BA","timezone":"Europe/Sarajevo","population":104518,"capital":"false","continent":"Europe"}
179;Бихач;{"name":"Бихач","lat":44.81694,"lon":15.87083,"country":"BA","timezone":"Europe/Sarajevo","population":75641,"capital":"false","continent":"Europe"}
180;Баня-Лука,БаняЛука,Баня Лука;{"name":"Баня-Лука","lat":44.77583,"lon":17.18556,"country":"BA","timezone":"Europe/Sarajevo","population":221106,"capital":"false","continent":"Europe"}
181;Бриджтаун;{"name":"Бриджтаун","lat":13.1,"lon":-59.61667,"country":"BB","timezone":"America/Barbados","population":98511,"capital":"true","continent":"America"}
182;Такургаон;{"name":"Такургаон","lat":26.03097,"lon":88.46989,"country":"BD","timezone":"Asia/Dhaka","population":71096 ,"capital":"false" ,"continent":"Asia"}
183;Тунги;{"name":"Тунги","lat":23.89154,"lon":90.40232,"country":"BD","timezone":"Asia/Dhaka","population":337579 ,"capital":"false" ,"continent":"Asia"}
184;Силхет;{"name":"Силхет","lat":24.89904,"lon":91.87198,"country":"BD","timezone":"Asia/Dhaka","population":237000,"capital":"false","continent":"Asia"}
185;Джамалпур;{"name":"Джамалпур","lat":24.91965,"lon":89.94812,"country":"BD","timezone":"Asia/Dhaka","population":167900,"capital":"false","continent":"Asia"}
186;Саткхира;{"name":"Саткхира","lat":22.70817,"lon":89.07185,"country":"BD","timezone":"Asia/Dhaka","population":128918,"capital":"false","continent":"Asia"}
187;Сираджгандж;{"name":"Сираджгандж","lat":24.45771,"lon":89.70802,"country":"BD","timezone":"Asia/Dhaka","population":127481,"capital":"false","continent":"Asia"}
188;Нетрокона;{"name":"Нетрокона","lat":24.88352,"lon":90.72898,"country":"BD","timezone":"Asia/Dhaka","population":79016,"capital":"false","continent":"Asia"}
189;Нарсингди;{"name":"Нарсингди","lat":23.92298,"lon":90.71768,"country":"BD","timezone":"Asia/Dhaka","population":281080,"capital":"false","continent":"Asia"}
190;Сандвип;{"name":"Сандвип","lat":22.51409,"lon":91.45491,"country":"BD","timezone":"Asia/Dhaka","population":52152,"capital":"false","continent":"Asia"}
191;Шахзадпур;{"name":"Шахзадпур","lat":24.17687,"lon":89.5988,"country":"BD","timezone":"Asia/Dhaka","population":102420,"capital":"false","continent":"Asia"}
192;Рамгандж;{"name":"Рамгандж","lat":23.1006,"lon":90.84989,"country":"BD","timezone":"Asia/Dhaka","population":55241,"capital":"false","continent":"Asia"}
193;Раджшахи;{"name":"Раджшахи","lat":24.374,"lon":88.60114,"country":"BD","timezone":"Asia/Dhaka","population":700133,"capital":"false","continent":"Asia"}
194;Пироджпур;{"name":"Пироджпур","lat":22.57965,"lon":89.97521,"country":"BD","timezone":"Asia/Dhaka","population":54418,"capital":"false","continent":"Asia"}
195;Паттайя;{"name":"Паттайя","lat":22.29543,"lon":91.979,"country":"BD","timezone":"Asia/Dhaka","population":51360 ,"capital":"false" ,"continent":"Asia"}
196;Нараянгандж;{"name":"Нараянгандж","lat":23.61352,"lon":90.50298,"country":"BD","timezone":"Asia/Dhaka","population":223622 ,"capital":"false" ,"continent":"Asia"}
197;Нагарпур;{"name":"Нагарпур","lat":24.05783,"lon":89.87696,"country":"BD","timezone":"Asia/Dhaka","population":238422,"capital":"false","continent":"Asia"}
198;Майменсингх;{"name":"Майменсингх","lat":24.75636,"lon":90.40646,"country":"BD","timezone":"Asia/Dhaka","population":225126,"capital":"false","continent":"Asia"}
199;Джалильабад;{"name":"Джалильабад","lat":24.48888,"lon":91.77075,"country":"BD","timezone":"Asia/Dhaka","population":57441 ,"capital":"false" ,"continent":"Asia"}
200;Лалмонирхат;{"name":"Лалмонирхат","lat":25.91719,"lon":89.44595,"country":"BD","timezone":"Asia/Dhaka","population":65127,"capital":"false","continent":"Asia"}
201;Лакшам;{"name":"Лакшам","lat":23.24018,"lon":91.12143,"country":"BD","timezone":"Asia/Dhaka","population":82290,"capital":"false","continent":"Asia"}
202;Комилле,Комилла;{"name":"Комилле","lat":23.46186,"lon":91.18503,"country":"BD","timezone":"Asia/Dhaka","population":389411,"capital":"false","continent":"Asia"}
203;Рангпур;{"name":"Рангпур","lat":25.74664,"lon":89.25166,"country":"BD","timezone":"Asia/Dhaka","population":343122,"capital":"false","continent":"Asia"}
204;Куштия;{"name":"Куштия","lat":23.9028,"lon":89.11943,"country":"BD","timezone":"Asia/Dhaka","population":135724,"capital":"false","continent":"Asia"}
205;Хатъяй;{"name":"Хатъяй","lat":25.10147,"lon":89.02734,"country":"BD","timezone":"Asia/Dhaka","population":73068 ,"capital":"false" ,"continent":"Asia"}
206;Исхурди;{"name":"Исхурди","lat":24.12858,"lon":89.06573,"country":"BD","timezone":"Asia/Dhaka","population":81995,"capital":"false","continent":"Asia"}
207;Хабигандж;{"name":"Хабигандж","lat":24.38044,"lon":91.41299,"country":"BD","timezone":"Asia/Dhaka","population":88760,"capital":"false","continent":"Asia"}
208;Фени;{"name":"Фени","lat":23.0144,"lon":91.3966,"country":"BD","timezone":"Asia/Dhaka","population":84028 ,"capital":"false" ,"continent":"Asia"}
209;Райпур;{"name":"Райпур","lat":21.23333,"lon":81.63333,"country":"IN","timezone":"Asia/Kolkata","population":679995,"capital":"false","continent":"Asia"}
210;Дакка;{"name":"Дакка","lat":23.7104,"lon":90.40744,"country":"BD","timezone":"Asia/Dhaka","population":10356500,"capital":"true","continent":"Asia"}
211;Кхаграчари;{"name":"Кхаграчари","lat":23.10787,"lon":91.97007,"country":"BD","timezone":"Asia/Dhaka","population":50364,"capital":"false","continent":"Asia"}
212;Бхайраб;{"name":"Бхайраб","lat":24.0524,"lon":90.9764,"country":"BD","timezone":"Asia/Dhaka","population":105457,"capital":"false","continent":"Asia"}
213;Нарайл;{"name":"Нарайл","lat":23.15509,"lon":89.49515,"country":"BD","timezone":"Asia/Dhaka","population":55112,"capital":"false","continent":"Asia"}
214;Тонгипара;{"name":"Тонгипара","lat":22.89983,"lon":89.90326,"country":"BD","timezone":"Asia/Dhaka","population":62210,"capital":"false","continent":"Asia"}
215;Саришабари;{"name":"Саришабари","lat":24.75127,"lon":89.83126,"country":"BD","timezone":"Asia/Dhaka","population":81325,"capital":"false","continent":"Asia"}
216;Поленг;{"name":"Поленг","lat":23.21824,"lon":90.35076,"country":"BD","timezone":"Asia/Dhaka","population":67652 ,"capital":"false" ,"continent":"Asia"}
217;Пар;{"name":"Пар","lat":24.80418,"lon":88.94875,"country":"BD","timezone":"Asia/Dhaka","population":192464 ,"capital":"false" ,"continent":"Asia"}
218;Лаксхмипур;{"name":"Лаксхмипур","lat":22.9443,"lon":90.83005,"country":"BD","timezone":"Asia/Dhaka","population":61703 ,"capital":"false" ,"continent":"Asia"}
219;Фаридпур;{"name":"Фаридпур","lat":23.60612,"lon":89.84064,"country":"BD","timezone":"Asia/Dhaka","population":112187 ,"capital":"false" ,"continent":"Asia"}
220;Динаджпур;{"name":"Динаджпур","lat":25.62745,"lon":88.63779,"country":"BD","timezone":"Asia/Dhaka","population":206234 ,"capital":"false" ,"continent":"Asia"}
221;Читтагонг;{"name":"Читтагонг","lat":22.3384,"lon":91.83168,"country":"BD","timezone":"Asia/Dhaka","population":3920222,"capital":"false","continent":"Asia"}
222;Саткания;{"name":"Саткания","lat":22.07639,"lon":92.04955,"country":"BD","timezone":"Asia/Dhaka","population":52005,"capital":"false","continent":"Asia"}
223;Кокс-Базар,КоксБазар,Кокс Базар;{"name":"Кокс-Базар","lat":21.45388,"lon":91.96765,"country":"BD","timezone":"Asia/Dhaka","population":253788,"capital":"false","continent":"Asia"}
224;Кхулна;{"name":"Кхулна","lat":22.80979,"lon":89.56439,"country":"BD","timezone":"Asia/Dhaka","population":1342339,"capital":"false","continent":"Asia"}
225;Бхола;{"name":"Бхола","lat":22.68759,"lon":90.64403,"country":"BD","timezone":"Asia/Dhaka","population":99079,"capital":"false","continent":"Asia"}
226;Барисал;{"name":"Барисал","lat":22.70497,"lon":90.37013,"country":"BD","timezone":"Asia/Dhaka","population":202242,"capital":"false","continent":"Asia"}
227;Джессор;{"name":"Джессор","lat":23.16971,"lon":89.21371,"country":"BD","timezone":"Asia/Dhaka","population":243987,"capital":"false","continent":"Asia"}
228;Пабне;{"name":"Пабне","lat":24.00644,"lon":89.2372,"country":"BD","timezone":"Asia/Dhaka","population":186781,"capital":"false","continent":"Asia"}
229;Тангайл;{"name":"Тангайл","lat":24.24984,"lon":89.91655,"country":"BD","timezone":"Asia/Dhaka","population":180144 ,"capital":"false" ,"continent":"Asia"}
230;Богра;{"name":"Богра","lat":24.85098,"lon":89.37108,"country":"BD","timezone":"Asia/Dhaka","population":210000,"capital":"false","continent":"Asia"}
231;Навабгандж;{"name":"Навабгандж","lat":24.59025,"lon":88.27444,"country":"BD","timezone":"Asia/Dhaka","population":142361 ,"capital":"false" ,"continent":"Asia"}
232;Мадарипур;{"name":"Мадарипур","lat":23.17097,"lon":90.20935,"country":"BD","timezone":"Asia/Dhaka","population":84789,"capital":"false","continent":"Asia"}
233;Шерпур;{"name":"Шерпур","lat":25.01881,"lon":90.01751,"country":"BD","timezone":"Asia/Dhaka","population":107419 ,"capital":"false" ,"continent":"Asia"}
234;Кишоргандж;{"name":"Кишоргандж","lat":24.43944,"lon":90.78291,"country":"BD","timezone":"Asia/Dhaka","population":90690,"capital":"false","continent":"Asia"}
235;Саидпур;{"name":"Саидпур","lat":25.77769,"lon":88.89169,"country":"BD","timezone":"Asia/Dhaka","population":199422,"capital":"false","continent":"Asia"}
236;Азимпур;{"name":"Азимпур","lat":23.7298,"lon":90.3854,"country":"BD","timezone":"Asia/Dhaka","population":96641,"capital":"false","continent":"Asia"}
237;Палтан;{"name":"Палтан","lat":23.73625,"lon":90.41426,"country":"BD","timezone":"Asia/Dhaka","population":184492,"capital":"false","continent":"Asia"}
238;Вервье;{"name":"Вервье","lat":50.58907,"lon":5.86241,"country":"BE","timezone":"Europe/Brussels","population":52824,"capital":"false","continent":"Europe"}
239;Турне;{"name":"Турне","lat":50.60715,"lon":3.38932,"country":"BE","timezone":"Europe/Brussels","population":67721,"capital":"false","continent":"Europe"}
240;Синт-Никлас,СинтНиклас,Синт Никлас;{"name":"Синт-Никлас","lat":51.16509,"lon":4.1437,"country":"BE","timezone":"Europe/Brussels","population":69010,"capital":"false","continent":"Europe"}
241;Серен;{"name":"Серен","lat":50.58362,"lon":5.50115,"country":"BE","timezone":"Europe/Brussels","population":60737,"capital":"false","continent":"Europe"}
242;Руселаре;{"name":"Руселаре","lat":50.94653,"lon":3.12269,"country":"BE","timezone":"Europe/Brussels","population":56016,"capital":"false","continent":"Europe"}
243;Остенде;{"name":"Остенде","lat":51.21551,"lon":2.927,"country":"BE","timezone":"Europe/Brussels","population":69011,"capital":"false","continent":"Europe"}
244;Намюр;{"name":"Намюр","lat":50.4669,"lon":4.86746,"country":"BE","timezone":"Europe/Brussels","population":106284,"capital":"false","continent":"Europe"}
245;Мускрон;{"name":"Мускрон","lat":50.74497,"lon":3.20639,"country":"BE","timezone":"Europe/Brussels","population":52069,"capital":"false","continent":"Europe"}
246;Монс;{"name":"Монс","lat":50.45413,"lon":3.95229,"country":"BE","timezone":"Europe/Brussels","population":91277,"capital":"false","continent":"Europe"}
247;Мехелен;{"name":"Мехелен","lat":51.02574,"lon":4.47762,"country":"BE","timezone":"Europe/Brussels","population":77530,"capital":"false","continent":"Europe"}
248;Льеж;{"name":"Льеж","lat":50.63373,"lon":5.56749,"country":"BE","timezone":"Europe/Brussels","population":182597,"capital":"false","continent":"Europe"}
249;Лёвен;{"name":"Лёвен","lat":50.87959,"lon":4.70093,"country":"BE","timezone":"Europe/Brussels","population":92892,"capital":"false","continent":"Europe"}
250;Ла-Лувьер,ЛаЛувьер,Ла Лувьер;{"name":"Ла-Лувьер","lat":50.48657,"lon":4.18785,"country":"BE","timezone":"Europe/Brussels","population":76668,"capital":"false","continent":"Europe"}
251;Кортрейк;{"name":"Кортрейк","lat":50.82803,"lon":3.26487,"country":"BE","timezone":"Europe/Brussels","population":73879,"capital":"false","continent":"Europe"}
252;Хасселт;{"name":"Хасселт","lat":50.93106,"lon":5.33781,"country":"BE","timezone":"Europe/Brussels","population":69222,"capital":"false","continent":"Europe"}
253;Гент;{"name":"Гент","lat":51.05,"lon":3.71667,"country":"BE","timezone":"Europe/Brussels","population":231493,"capital":"false","continent":"Europe"}
254;Генк;{"name":"Генк","lat":50.965,"lon":5.50082,"country":"BE","timezone":"Europe/Brussels","population":63666,"capital":"false","continent":"Europe"}
255;Шарлеруа;{"name":"Шарлеруа","lat":50.41136,"lon":4.44448,"country":"BE","timezone":"Europe/Brussels","population":200132,"capital":"false","continent":"Europe"}
256;Брюссель;{"name":"Брюссель","lat":50.85045,"lon":4.34878,"country":"BE","timezone":"Europe/Brussels","population":1019022,"capital":"true","continent":"Europe"}
257;Брюгге;{"name":"Брюгге","lat":51.20892,"lon":3.22424,"country":"BE","timezone":"Europe/Brussels","population":116709,"capital":"false","continent":"Europe"}
258;Антверпен;{"name":"Антверпен","lat":51.21989,"lon":4.40346,"country":"BE","timezone":"Europe/Brussels","population":459805,"capital":"false","continent":"Europe"}
259;Алст;{"name":"Алст","lat":50.93604,"lon":4.0355,"country":"BE","timezone":"Europe/Brussels","population":77534 ,"capital":"false" ,"continent":"Europe"}
260;Вахигуя;{"name":"Вахигуя","lat":13.58278,"lon":-2.42158,"country":"BF","timezone":"Africa/Ouagadougou","population":61096,"capital":"false","continent":"Africa"}
261;Уагадугу;{"name":"Уагадугу","lat":12.36566,"lon":-1.53388,"country":"BF","timezone":"Africa/Ouagadougou","population":1086505,"capital":"false","continent":"Africa"}
262;Кудугу;{"name":"Кудугу","lat":12.25263,"lon":-2.36272,"country":"BF","timezone":"Africa/Ouagadougou","population":87347,"capital":"false","continent":"Africa"}
263;Бобо-Диуласо,БобоДиуласо,Бобо Диуласо;{"name":"Бобо-Диуласо","lat":11.17715,"lon":-4.2979,"country":"BF","timezone":"Africa/Ouagadougou","population":360106,"capital":"false","continent":"Africa"}
264;Банфору,Банфора;{"name":"Банфору","lat":10.63333,"lon":-4.76667,"country":"BF","timezone":"Africa/Ouagadougou","population":60288,"capital":"false","continent":"Africa"}
265;Ямбол;{"name":"Ямбол","lat":42.48333,"lon":26.5,"country":"BG","timezone":"Europe/Sofia","population":80116 ,"capital":"false" ,"continent":"Europe"}
266;Враца;{"name":"Враца","lat":43.21,"lon":23.5625,"country":"BG","timezone":"Europe/Sofia","population":64941,"capital":"false","continent":"Europe"}
267;Видин;{"name":"Видин","lat":43.99,"lon":22.8725,"country":"BG","timezone":"Europe/Sofia","population":54409,"capital":"false","continent":"Europe"}
268;Велико-Тырново;{"name":"Велико-Тырново","lat":43.08124,"lon":25.62904,"country":"BG","timezone":"Europe/Sofia","population":66217 ,"capital":"false" ,"continent":"Europe"}
269;Варна;{"name":"Варна","lat":43.21667,"lon":27.91667,"country":"BG","timezone":"Europe/Sofia","population":312770,"capital":"false","continent":"Europe"}
270;Добрич;{"name":"Добрич","lat":43.56667,"lon":27.83333,"country":"BG","timezone":"Europe/Sofia","population":94831,"capital":"false","continent":"Europe"}
271;Стара-Загора,СтараЗагора,Стара Загора;{"name":"Стара-Загора","lat":42.43278,"lon":25.64194,"country":"BG","timezone":"Europe/Sofia","population":143431,"capital":"false","continent":"Europe"}
272;София;{"name":"София","lat":42.69751,"lon":23.32415,"country":"BG","timezone":"Europe/Sofia","population":1152556,"capital":"true","continent":"Europe"}
273;Сливен;{"name":"Сливен","lat":42.68583,"lon":26.32917,"country":"BG","timezone":"Europe/Sofia","population":96368,"capital":"false","continent":"Europe"}
274;Шумен;{"name":"Шумен","lat":43.27064,"lon":26.92286,"country":"BG","timezone":"Europe/Sofia","population":87283 ,"capital":"false" ,"continent":"Europe"}
275;Русе;{"name":"Русе","lat":43.85639,"lon":25.97083,"country":"BG","timezone":"Europe/Sofia","population":156238,"capital":"false","continent":"Europe"}
276;Пловдив;{"name":"Пловдив","lat":42.15,"lon":24.75,"country":"BG","timezone":"Europe/Sofia","population":340494,"capital":"false","continent":"Europe"}
277;Плевен;{"name":"Плевен","lat":43.41667,"lon":24.61667,"country":"BG","timezone":"Europe/Sofia","population":118675,"capital":"false","continent":"Europe"}
278;Перник;{"name":"Перник","lat":42.6,"lon":23.03333,"country":"BG","timezone":"Europe/Sofia","population":82467,"capital":"false","continent":"Europe"}
279;Пазарджик;{"name":"Пазарджик","lat":42.2,"lon":24.33333,"country":"BG","timezone":"Europe/Sofia","population":75977,"capital":"false","continent":"Europe"}
280;Кырджали;{"name":"Кырджали","lat":41.65,"lon":25.36667,"country":"BG","timezone":"Europe/Sofia","population":51000,"capital":"false","continent":"Europe"}
281;Хасково;{"name":"Хасково","lat":41.93415,"lon":25.55557,"country":"BG","timezone":"Europe/Sofia","population":79699,"capital":"false","continent":"Europe"}
282;Казанлык;{"name":"Казанлык","lat":42.61667,"lon":25.4,"country":"BG","timezone":"Europe/Sofia","population":55196,"capital":"false","continent":"Europe"}
283;Габрово;{"name":"Габрово","lat":42.87472,"lon":25.33417,"country":"BG","timezone":"Europe/Sofia","population":66175,"capital":"false","continent":"Europe"}
284;Бургас;{"name":"Бургас","lat":42.50606,"lon":27.46781,"country":"BG","timezone":"Europe/Sofia","population":195966,"capital":"false","continent":"Europe"}
285;Благоевград;{"name":"Благоевград","lat":42.01667,"lon":23.1,"country":"BG","timezone":"Europe/Sofia","population":71306,"capital":"false","continent":"Europe"}
286;Асеновград;{"name":"Асеновград","lat":42.01667,"lon":24.86667,"country":"BG","timezone":"Europe/Sofia","population":52170 ,"capital":"false" ,"continent":"Europe"}
287;Хамад;{"name":"Хамад","lat":26.11528,"lon":50.50694,"country":"BH","timezone":"Asia/Bahrain","population":52718 ,"capital":"false" ,"continent":"Asia"}
288;Бахр-Дар;{"name":"Бахр-Дар","lat":26.06861,"lon":50.50389,"country":"BH","timezone":"Asia/Bahrain","population":65466 ,"capital":"false" ,"continent":"Asia"}
289;Аль-Мухаррак,АльМухаррак,Аль Мухаррак;{"name":"Аль-Мухаррак","lat":26.25722,"lon":50.61194,"country":"BH","timezone":"Asia/Bahrain","population":97458,"capital":"false","continent":"Asia"}
290;Манама;{"name":"Манама","lat":26.22787,"lon":50.58565,"country":"BH","timezone":"Asia/Bahrain","population":147074,"capital":"true","continent":"Asia"}
291;Эр-Рифа;{"name":"Эр-Рифа","lat":26.13,"lon":50.555,"country":"BH","timezone":"Asia/Bahrain","population":79550,"capital":"false","continent":"Asia"}
292;Бужумбура;{"name":"Бужумбура","lat":-3.3822,"lon":29.3644,"country":"BI","timezone":"Africa/Bujumbura","population":331700,"capital":"true","continent":"Africa"}
293;Муйинга;{"name":"Муйинга","lat":-2.8451,"lon":30.3414,"country":"BI","timezone":"Africa/Bujumbura","population":71076,"capital":"false","continent":"Africa"}
294;Саве;{"name":"Саве","lat":8.03424,"lon":2.4866,"country":"BJ","timezone":"Africa/Porto-Novo","population":75970 ,"capital":"false" ,"continent":"Africa"}
295;Порто-Ново,ПортоНово,Порто Ново;{"name":"Порто-Ново","lat":6.49646,"lon":2.60359,"country":"BJ","timezone":"Africa/Porto-Novo","population":234168,"capital":"true","continent":"Africa"}
296;Параку;{"name":"Параку","lat":9.33716,"lon":2.63031,"country":"BJ","timezone":"Africa/Porto-Novo","population":163753,"capital":"false","continent":"Africa"}
297;Виды;{"name":"Виды","lat":6.36307,"lon":2.08506,"country":"BJ","timezone":"Africa/Porto-Novo","population":83503,"capital":"false","continent":"Africa"}
298;Никки;{"name":"Никки","lat":9.94009,"lon":3.21075,"country":"BJ","timezone":"Africa/Porto-Novo","population":54009,"capital":"false","continent":"Africa"}
299;Натитингу;{"name":"Натитингу","lat":10.30416,"lon":1.37962,"country":"BJ","timezone":"Africa/Porto-Novo","population":80892,"capital":"false","continent":"Africa"}
300;Локоса;{"name":"Локоса","lat":6.63869,"lon":1.71674,"country":"BJ","timezone":"Africa/Porto-Novo","population":86971,"capital":"false","continent":"Africa"}
301;Канди;{"name":"Канди","lat":7.2955,"lon":80.6356,"country":"LK","timezone":"Asia/Colombo","population":111701,"capital":"false","continent":"Asia"}
302;Джугу;{"name":"Джугу","lat":9.70853,"lon":1.66598,"country":"BJ","timezone":"Africa/Porto-Novo","population":237040 ,"capital":"false" ,"continent":"Africa"}
303;Котону;{"name":"Котону","lat":6.36536,"lon":2.41833,"country":"BJ","timezone":"Africa/Porto-Novo","population":780000,"capital":"false","continent":"Africa"}
304;Боикон;{"name":"Боикон","lat":7.17826,"lon":2.0667,"country":"BJ","timezone":"Africa/Porto-Novo","population":125092 ,"capital":"false" ,"continent":"Africa"}
305;Абомей-Калави,АбомейКалави,Абомей Калави;{"name":"Абомей-Калави","lat":6.44852,"lon":2.35566,"country":"BJ","timezone":"Africa/Porto-Novo","population":385755,"capital":"false","continent":"Africa"}
306;Абомей;{"name":"Абомей","lat":7.18286,"lon":1.99119,"country":"BJ","timezone":"Africa/Porto-Novo","population":82154,"capital":"false","continent":"Africa"}
307;Бандар-Сери-Бегаван,БандарСериБегаван,Бандар Сери Бегаван;{"name":"Бандар-Сери-Бегаван","lat":4.94029,"lon":114.94806,"country":"BN","timezone":"Asia/Brunei","population":64409,"capital":"true","continent":"Asia"}
308;Якуиба;{"name":"Якуиба","lat":-22.01643,"lon":-63.67753,"country":"BO","timezone":"America/La_Paz","population":82803,"capital":"false","continent":"America"}
309;Тринидад;{"name":"Тринидад","lat":-14.83333,"lon":-64.9,"country":"BO","timezone":"America/La_Paz","population":84259,"capital":"false","continent":"America"}
310;Тариха;{"name":"Тариха","lat":-21.53549,"lon":-64.72956,"country":"BO","timezone":"America/La_Paz","population":159269,"capital":"false","continent":"America"}
311;Сукре;{"name":"Сукре","lat":-19.03332,"lon":-65.26274,"country":"BO","timezone":"America/La_Paz","population":224838,"capital":"false","continent":"America"}
312;Санта-Крус-де-ла-Сиерра,СантаКрусделаСиерра,Санта Крус де ла Сиерра;{"name":"Санта-Крус-де-ла-Сиерра","lat":-17.78629,"lon":-63.18117,"country":"BO","timezone":"America/La_Paz","population":1364389,"capital":"false","continent":"America"}
313;Риберальта;{"name":"Риберальта","lat":-11.00654,"lon":-66.06312,"country":"BO","timezone":"America/La_Paz","population":74014,"capital":"false","continent":"America"}
314;Потоси;{"name":"Потоси","lat":-19.58361,"lon":-65.75306,"country":"BO","timezone":"America/La_Paz","population":141251,"capital":"false","continent":"America"}
315;Оруро;{"name":"Оруро","lat":-17.98333,"lon":-67.15,"country":"BO","timezone":"America/La_Paz","population":208684,"capital":"false","continent":"America"}
316;Монтеро;{"name":"Монтеро","lat":-17.33866,"lon":-63.2505,"country":"BO","timezone":"America/La_Paz","population":88616,"capital":"false","continent":"America"}
317;Ла-Пас,ЛаПас,Ла Пас;{"name":"Ла-Пас","lat":-16.5,"lon":-68.15,"country":"BO","timezone":"America/La_Paz","population":812799,"capital":"false","continent":"America"}
318;Кочабамба;{"name":"Кочабамба","lat":-17.3895,"lon":-66.1568,"country":"BO","timezone":"America/La_Paz","population":900414,"capital":"false","continent":"America"}
319;Витория-де-Санту-Антан,ВиториядеСантуАнтан,Витория де Санту Антан;{"name":"Витория-де-Санту-Антан","lat":-8.11806,"lon":-35.29139,"country":"BR","timezone":"America/Recife","population":107383,"capital":"false","continent":"America"}
320;Тукуруи;{"name":"Тукуруи","lat":-3.76585,"lon":-49.67923,"country":"BR","timezone":"America/Belem","population":76337 ,"capital":"false" ,"continent":"America"}
321;Тимон;{"name":"Тимон","lat":-5.09417,"lon":-42.83667,"country":"BR","timezone":"America/Fortaleza","population":124427,"capital":"false","continent":"America"}
322;Терезина;{"name":"Терезина","lat":-5.08917,"lon":-42.80194,"country":"BR","timezone":"America/Fortaleza","population":744512,"capital":"false","continent":"America"}
323;Собрал;{"name":"Собрал","lat":-3.68611,"lon":-40.34972,"country":"BR","timezone":"America/Fortaleza","population":157996,"capital":"false","continent":"America"}
324;Серра-Тальяда,СерраТальяда,Серра Тальяда;{"name":"Серра-Тальяда","lat":-7.99194,"lon":-38.29833,"country":"BR","timezone":"America/Recife","population":51203,"capital":"false","continent":"America"}
325;Сан-Лоренсу-да-Мата,СанЛоренсудаМата,Сан Лоренсу да Мата;{"name":"Сан-Лоренсу-да-Мата","lat":-8.00222,"lon":-35.01833,"country":"BR","timezone":"America/Recife","population":88416,"capital":"false","continent":"America"}
326;Санта-Рита;{"name":"Санта-Рита","lat":-7.11389,"lon":-34.97806,"country":"BR","timezone":"America/Fortaleza","population":119893 ,"capital":"false" ,"continent":"America"}
327;Сантарен;{"name":"Сантарен","lat":-2.44306,"lon":-54.70833,"country":"BR","timezone":"America/Santarem","population":189047,"capital":"false","continent":"America"}
328;Санта-Инес,СантаИнес,Санта Инес;{"name":"Санта-Инес","lat":-3.66667,"lon":-45.38,"country":"BR","timezone":"America/Fortaleza","population":67424,"capital":"false","continent":"America"}
329;Санта-Крус-ду-Капибариби,СантаКрусдуКапибариби,Санта Крус ду Капибариби;{"name":"Санта-Крус-ду-Капибариби","lat":-7.9575,"lon":-36.20472,"country":"BR","timezone":"America/Recife","population":76450,"capital":"false","continent":"America"}
330;Риу-Ларгу;{"name":"Риу-Ларгу","lat":-9.47833,"lon":-35.85333,"country":"BR","timezone":"America/Maceio","population":63387 ,"capital":"false" ,"continent":"America"}
331;Ресифи;{"name":"Ресифи","lat":-8.05389,"lon":-34.88111,"country":"BR","timezone":"America/Recife","population":1478098,"capital":"false","continent":"America"}
332;Сантана;{"name":"Сантана","lat":-0.05833,"lon":-51.18167,"country":"BR","timezone":"America/Belem","population":83927,"capital":"false","continent":"America"}
333;Пикус;{"name":"Пикус","lat":-7.07694,"lon":-41.46694,"country":"BR","timezone":"America/Fortaleza","population":57495,"capital":"false","continent":"America"}
334;Петролина;{"name":"Петролина","lat":-9.39861,"lon":-40.50083,"country":"BR","timezone":"America/Recife","population":194650,"capital":"false","continent":"America"}
335;Паулу-Афонсу,ПаулуАфонсу,Паулу Афонсу;{"name":"Паулу-Афонсу","lat":-9.40611,"lon":-38.21472,"country":"BR","timezone":"America/Bahia","population":85350,"capital":"false","continent":"America"}
336;Паулиста;{"name":"Паулиста","lat":-7.94083,"lon":-34.87306,"country":"BR","timezone":"America/Recife","population":289971 ,"capital":"false" ,"continent":"America"}
337;Патус;{"name":"Патус","lat":-7.02444,"lon":-37.28,"country":"BR","timezone":"America/Fortaleza","population":92575,"capital":"false","continent":"America"}
338;Парнамирин;{"name":"Парнамирин","lat":-5.91556,"lon":-35.26278,"country":"BR","timezone":"America/Fortaleza","population":150343,"capital":"false","continent":"America"}
339;Парнаиба;{"name":"Парнаиба","lat":-2.90472,"lon":-41.77667,"country":"BR","timezone":"America/Fortaleza","population":138008,"capital":"false","continent":"America"}
340;Паринтинса;{"name":"Паринтинса","lat":-2.62833,"lon":-56.73583,"country":"BR","timezone":"America/Manaus","population":64428,"capital":"false","continent":"America"}
341;Парагоминас;{"name":"Парагоминас","lat":-2.96667,"lon":-47.48333,"country":"BR","timezone":"America/Belem","population":69613 ,"capital":"false" ,"continent":"America"}
342;Пакатуба;{"name":"Пакатуба","lat":-3.98417,"lon":-38.62028,"country":"BR","timezone":"America/Fortaleza","population":55291 ,"capital":"false" ,"continent":"America"}
343;Олинда;{"name":"Олинда","lat":-8.00889,"lon":-34.85528,"country":"BR","timezone":"America/Recife","population":366754,"capital":"false","continent":"America"}
344;Натал;{"name":"Натал","lat":-5.795,"lon":-35.20944,"country":"BR","timezone":"America/Fortaleza","population":763043,"capital":"false","continent":"America"}
345;Мосоро;{"name":"Мосоро","lat":-5.1875,"lon":-37.34417,"country":"BR","timezone":"America/Fortaleza","population":202005,"capital":"false","continent":"America"}
346;Эштасан Марешал Деодору;{"name":"Эштасан Марешал Деодору","lat":-9.71028,"lon":-35.895,"country":"BR","timezone":"America/Maceio","population":50571 ,"capital":"false" ,"continent":"America"}
347;Мараканау;{"name":"Мараканау","lat":-3.87667,"lon":-38.62556,"country":"BR","timezone":"America/Fortaleza","population":193529 ,"capital":"false" ,"continent":"America"}
348;Мараба;{"name":"Мараба","lat":-5.38146,"lon":-49.13232,"country":"BR","timezone":"America/Belem","population":145860,"capital":"false","continent":"America"}
349;Масейо;{"name":"Масейо","lat":-9.66583,"lon":-35.73528,"country":"BR","timezone":"America/Maceio","population":954991,"capital":"false","continent":"America"}
350;Макапа;{"name":"Макапа","lat":0.03889,"lon":-51.06639,"country":"BR","timezone":"America/Belem","population":338936,"capital":"false","continent":"America"}
351;Жуазейру-ду-Норти,ЖуазейрудуНорти,Жуазейру ду Норти;{"name":"Жуазейру-ду-Норти","lat":-7.21306,"lon":-39.31528,"country":"BR","timezone":"America/Fortaleza","population":225230,"capital":"false","continent":"America"}
352;Жуан-Песоа,ЖуанПесоа,Жуан Песоа;{"name":"Жуан-Песоа","lat":-7.115,"lon":-34.86306,"country":"BR","timezone":"America/Fortaleza","population":650883,"capital":"false","continent":"America"}
353;Жабоатау;{"name":"Жабоатау","lat":-8.18028,"lon":-35.00139,"country":"BR","timezone":"America/Recife","population":702621 ,"capital":"false" ,"continent":"America"}
354;Итакуатьяра;{"name":"Итакуатьяра","lat":-3.14306,"lon":-58.44417,"country":"BR","timezone":"America/Manaus","population":64937 ,"capital":"false" ,"continent":"America"}
355;Итапипока;{"name":"Итапипока","lat":-3.49444,"lon":-39.57861,"country":"BR","timezone":"America/Fortaleza","population":55784,"capital":"false","continent":"America"}
356;Итайтуба;{"name":"Итайтуба","lat":-4.27611,"lon":-55.98361,"country":"BR","timezone":"America/Santarem","population":64756 ,"capital":"false" ,"continent":"America"}
357;Ипожука;{"name":"Ипожука","lat":-8.39889,"lon":-35.06389,"country":"BR","timezone":"America/Recife","population":53364,"capital":"false","continent":"America"}
358;Императрис;{"name":"Императрис","lat":-5.52639,"lon":-47.49167,"country":"BR","timezone":"America/Fortaleza","population":218106,"capital":"false","continent":"America"}
359;Игуату;{"name":"Игуату","lat":-6.35944,"lon":-39.29861,"country":"BR","timezone":"America/Fortaleza","population":70380 ,"capital":"false" ,"continent":"America"}
360;Игарасу;{"name":"Игарасу","lat":-7.83417,"lon":-34.90639,"country":"BR","timezone":"America/Recife","population":86457,"capital":"false","continent":"America"}
361;Белу-Оризонти;{"name":"Белу-Оризонти","lat":-4.1,"lon":-38.48333,"country":"BR","timezone":"America/Fortaleza","population":51171 ,"capital":"false" ,"continent":"America"}
362;Гравата;{"name":"Гравата","lat":-8.20111,"lon":-35.56472,"country":"BR","timezone":"America/Recife","population":61249 ,"capital":"false" ,"continent":"America"}
363;Гараньюнс;{"name":"Гараньюнс","lat":-8.88202,"lon":-36.50216,"country":"BR","timezone":"America/Recife","population":110085,"capital":"false","continent":"America"}
364;Форталеза;{"name":"Форталеза","lat":-3.71722,"lon":-38.54306,"country":"BR","timezone":"America/Fortaleza","population":2400000,"capital":"false","continent":"America"}
365;Крату;{"name":"Крату","lat":-7.23417,"lon":-39.40944,"country":"BR","timezone":"America/Fortaleza","population":88786,"capital":"false","continent":"America"}
366;Кратеуш;{"name":"Кратеуш","lat":-5.17833,"lon":-40.6775,"country":"BR","timezone":"America/Fortaleza","population":52933 ,"capital":"false" ,"continent":"America"}
367;Кодо;{"name":"Кодо","lat":-4.45528,"lon":-43.88556,"country":"BR","timezone":"America/Fortaleza","population":83288 ,"capital":"false" ,"continent":"America"}
368;Кашиас;{"name":"Кашиас","lat":-4.85889,"lon":-43.35611,"country":"BR","timezone":"America/Fortaleza","population":148072,"capital":"false","continent":"America"}
369;Каукая;{"name":"Каукая","lat":-3.73611,"lon":-38.65306,"country":"BR","timezone":"America/Fortaleza","population":275019 ,"capital":"false" ,"continent":"America"}
370;Кастаньял;{"name":"Кастаньял","lat":-1.29389,"lon":-47.92639,"country":"BR","timezone":"America/Belem","population":137406,"capital":"false","continent":"America"}
371;Каскавел;{"name":"Каскавел","lat":-4.13306,"lon":-38.24194,"country":"BR","timezone":"America/Fortaleza","population":52357 ,"capital":"false" ,"continent":"America"}
372;Каруару;{"name":"Каруару","lat":-8.28333,"lon":-35.97611,"country":"BR","timezone":"America/Recife","population":235371,"capital":"false","continent":"America"}
373;Карпина;{"name":"Карпина","lat":-7.85083,"lon":-35.25472,"country":"BR","timezone":"America/Recife","population":70689,"capital":"false","continent":"America"}
374;Кампина-Гранде,Кампина-Гранди,КампинаГранде,КампинаГранди,Кампина Гранде,Кампина Гранди;{"name":"Кампина-Гранде","lat":-7.23056,"lon":-35.88111,"country":"BR","timezone":"America/Fortaleza","population":348936,"capital":"false","continent":"America"}
375;Кайко;{"name":"Кайко","lat":-6.45833,"lon":-37.09778,"country":"BR","timezone":"America/Fortaleza","population":54934,"capital":"false","continent":"America"}
376;Кабо;{"name":"Кабо","lat":-8.28333,"lon":-35.03333,"country":"BR","timezone":"America/Recife","population":143105 ,"capital":"false" ,"continent":"America"}
377;Кабеделу;{"name":"Кабеделу","lat":-6.98111,"lon":-34.83389,"country":"BR","timezone":"America/Fortaleza","population":54839,"capital":"false","continent":"America"}
378;Браганса;{"name":"Браганса","lat":-1.05361,"lon":-46.76556,"country":"BR","timezone":"America/Belem","population":57163 ,"capital":"false" ,"continent":"America"}
379;Безеррус;{"name":"Безеррус","lat":-8.23333,"lon":-35.79694,"country":"BR","timezone":"America/Recife","population":51436,"capital":"false","continent":"America"}
380;Белен;{"name":"Белен","lat":-1.45583,"lon":-48.50444,"country":"BR","timezone":"America/Belem","population":1407737,"capital":"false","continent":"America"}
381;Байё;{"name":"Байё","lat":-7.125,"lon":-34.93222,"country":"BR","timezone":"America/Fortaleza","population":91056 ,"capital":"false" ,"continent":"America"}
382;Бальсас;{"name":"Бальсас","lat":-7.5325,"lon":-46.03556,"country":"BR","timezone":"America/Fortaleza","population":68056,"capital":"false","continent":"America"}
383;Бакабал;{"name":"Бакабал","lat":-4.29167,"lon":-44.79167,"country":"BR","timezone":"America/Fortaleza","population":72372,"capital":"false","continent":"America"}
384;Арковерди;{"name":"Арковерди","lat":-8.41889,"lon":-37.05389,"country":"BR","timezone":"America/Recife","population":57163,"capital":"false","continent":"America"}
385;Арапирака;{"name":"Арапирака","lat":-9.7525,"lon":-36.66111,"country":"BR","timezone":"America/Maceio","population":166562 ,"capital":"false" ,"continent":"America"}
386;Арагуаина;{"name":"Арагуаина","lat":-7.19111,"lon":-48.20722,"country":"BR","timezone":"America/Araguaina","population":105019,"capital":"false","continent":"America"}
387;Акирас;{"name":"Акирас","lat":-3.90139,"lon":-38.39111,"country":"BR","timezone":"America/Fortaleza","population":65116 ,"capital":"false" ,"continent":"America"}
388;Ананиндеуа;{"name":"Ананиндеуа","lat":-1.36556,"lon":-48.37222,"country":"BR","timezone":"America/Belem","population":433956,"capital":"false","continent":"America"}
389;Альтамира,Алтамира;{"name":"Альтамира","lat":-3.20333,"lon":-52.20639,"country":"BR","timezone":"America/Santarem","population":70888,"capital":"false","continent":"America"}
390;Абреу-и-Лима,АбреуиЛима,Абреу и Лима;{"name":"Абреу-и-Лима","lat":-7.91167,"lon":-34.90278,"country":"BR","timezone":"America/Recife","population":81959,"capital":"false","continent":"America"}
391;Абаэтетуба;{"name":"Абаэтетуба","lat":-1.71806,"lon":-48.8825,"country":"BR","timezone":"America/Belem","population":78050 ,"capital":"false" ,"continent":"America"}
392;Вотупоранга;{"name":"Вотупоранга","lat":-20.42278,"lon":-49.97278,"country":"BR","timezone":"America/Sao_Paulo","population":69863 ,"capital":"false" ,"continent":"America"}
393;Воторантин;{"name":"Воторантин","lat":-23.54667,"lon":-47.43778,"country":"BR","timezone":"America/Sao_Paulo","population":99390 ,"capital":"false" ,"continent":"America"}
394;Волта-Редонда,ВолтаРедонда,Волта Редонда;{"name":"Волта-Редонда","lat":-22.52306,"lon":-44.10417,"country":"BR","timezone":"America/Sao_Paulo","population":249580,"capital":"false","continent":"America"}
395;Витория-да-Конкиста,ВиториядаКонкиста,Витория да Конкиста;{"name":"Витория-да-Конкиста","lat":-14.86611,"lon":-40.83944,"country":"BR","timezone":"America/Bahia","population":253137,"capital":"false","continent":"America"}
396;Витория;{"name":"Витория","lat":-20.31944,"lon":-40.33778,"country":"BR","timezone":"America/Sao_Paulo","population":312656,"capital":"false","continent":"America"}
397;Виньеду;{"name":"Виньеду","lat":-23.02972,"lon":-46.97528,"country":"BR","timezone":"America/Sao_Paulo","population":56492 ,"capital":"false" ,"continent":"America"}
398;Вила-Велья,ВилаВелья,Вила Велья;{"name":"Вила-Велья","lat":-20.32972,"lon":-40.2925,"country":"BR","timezone":"America/Sao_Paulo","population":394930,"capital":"false","continent":"America"}
399;Висоза;{"name":"Висоза","lat":-20.75389,"lon":-42.88194,"country":"BR","timezone":"America/Sao_Paulo","population":68680,"capital":"false","continent":"America"}
400;Виана;{"name":"Виана","lat":-20.39028,"lon":-40.49611,"country":"BR","timezone":"America/Sao_Paulo","population":55122,"capital":"false","continent":"America"}
401;Виаман;{"name":"Виаман","lat":-30.08111,"lon":-51.02333,"country":"BR","timezone":"America/Sao_Paulo","population":285269,"capital":"false","continent":"America"}
402;Веспазиану;{"name":"Веспазиану","lat":-19.69194,"lon":-43.92333,"country":"BR","timezone":"America/Sao_Paulo","population":94749 ,"capital":"false" ,"continent":"America"}
403;Варзиа Паулишта;{"name":"Варзиа Паулишта","lat":-23.21139,"lon":-46.82833,"country":"BR","timezone":"America/Sao_Paulo","population":110936 ,"capital":"false" ,"continent":"America"}
404;Варзиа Гранди;{"name":"Варзиа Гранди","lat":-15.64667,"lon":-56.1325,"country":"BR","timezone":"America/Cuiaba","population":249752 ,"capital":"false" ,"continent":"America"}
405;Варжинья;{"name":"Варжинья","lat":-21.55139,"lon":-45.43028,"country":"BR","timezone":"America/Sao_Paulo","population":116571,"capital":"false","continent":"America"}
406;Валиньюс;{"name":"Валиньюс","lat":-22.97056,"lon":-46.99583,"country":"BR","timezone":"America/Sao_Paulo","population":88630,"capital":"false","continent":"America"}
407;Валенса;{"name":"Валенса","lat":-22.24556,"lon":-43.70028,"country":"BR","timezone":"America/Sao_Paulo","population":61144,"capital":"false","continent":"America"}
408;Валенса;{"name":"Валенса","lat":-13.37028,"lon":-39.07306,"country":"BR","timezone":"America/Bahia","population":63231 ,"capital":"false" ,"continent":"America"}
409;Вакария;{"name":"Вакария","lat":-28.51222,"lon":-50.93389,"country":"BR","timezone":"America/Sao_Paulo","population":56765,"capital":"false","continent":"America"}
410;Уругуаяна;{"name":"Уругуаяна","lat":-29.75472,"lon":-57.08833,"country":"BR","timezone":"America/Sao_Paulo","population":123480,"capital":"false","continent":"America"}
411;Унай;{"name":"Унай","lat":-16.3575,"lon":-46.90611,"country":"BR","timezone":"America/Sao_Paulo","population":60202,"capital":"false","continent":"America"}
412;Умуарама;{"name":"Умуарама","lat":-23.76639,"lon":-53.325,"country":"BR","timezone":"America/Sao_Paulo","population":89687 ,"capital":"false" ,"continent":"America"}
413;Уберландия;{"name":"Уберландия","lat":-18.91861,"lon":-48.27722,"country":"BR","timezone":"America/Sao_Paulo","population":563536,"capital":"false","continent":"America"}
414;Убераба;{"name":"Убераба","lat":-19.74833,"lon":-47.93194,"country":"BR","timezone":"America/Sao_Paulo","population":260843,"capital":"false","continent":"America"}
415;Убатуба;{"name":"Убатуба","lat":-23.43389,"lon":-45.07111,"country":"BR","timezone":"America/Sao_Paulo","population":79007,"capital":"false","continent":"America"}
416;Уба;{"name":"Уба","lat":-21.12,"lon":-42.94278,"country":"BR","timezone":"America/Sao_Paulo","population":97828,"capital":"false","continent":"America"}
417;Тупа,Тупан;{"name":"Тупа","lat":-21.93472,"lon":-50.51361,"country":"BR","timezone":"America/Sao_Paulo","population":62035,"capital":"false","continent":"America"}
418;Тубаран;{"name":"Тубаран","lat":-28.46667,"lon":-49.00694,"country":"BR","timezone":"America/Sao_Paulo","population":67245,"capital":"false","continent":"America"}
419;Триндади;{"name":"Триндади","lat":-16.64944,"lon":-49.48889,"country":"BR","timezone":"America/Sao_Paulo","population":97521,"capital":"false","continent":"America"}
420;Трес-Риус,ТресРиус,Трес Риус;{"name":"Трес-Риус","lat":-22.11667,"lon":-43.20917,"country":"BR","timezone":"America/Sao_Paulo","population":71944,"capital":"false","continent":"America"}
421;Трес-Лагоас,ТресЛагоас,Трес Лагоас;{"name":"Трес-Лагоас","lat":-20.78765,"lon":-51.70338,"country":"BR","timezone":"America/Campo_Grande","population":78712,"capital":"false","continent":"America"}
422;Трес-Корасойнс,ТресКорасойнс,Трес Корасойнс;{"name":"Трес-Корасойнс","lat":-21.69694,"lon":-45.25333,"country":"BR","timezone":"America/Sao_Paulo","population":63457,"capital":"false","continent":"America"}
423;Толедо,Толидо;{"name":"Толедо","lat":41.66394,"lon":-83.55521,"country":"US","timezone":"America/New_York","population":287208,"capital":"false","continent":"America"}
424;Тимофей,Тимотеу;{"name":"Тимофей","lat":-19.58106,"lon":-42.64953,"country":"BR","timezone":"America/Sao_Paulo","population":91722,"capital":"false","continent":"America"}
425;Терезополис;{"name":"Терезополис","lat":-22.4167,"lon":-42.97822,"country":"BR","timezone":"America/Sao_Paulo","population":123979,"capital":"false","continent":"America"}
426;Теофилу-Отони,ТеофилуОтони,Теофилу Отони;{"name":"Теофилу-Отони","lat":-17.8575,"lon":-41.50528,"country":"BR","timezone":"America/Sao_Paulo","population":101170,"capital":"false","continent":"America"}
427;Телемаку-Борба,ТелемакуБорба,Телемаку Борба;{"name":"Телемаку-Борба","lat":-24.32389,"lon":-50.61556,"country":"BR","timezone":"America/Sao_Paulo","population":58880,"capital":"false","continent":"America"}
428;Таубате;{"name":"Таубате","lat":-23.02639,"lon":-45.55528,"country":"BR","timezone":"America/Sao_Paulo","population":251641,"capital":"false","continent":"America"}
429;Татуи;{"name":"Татуи","lat":-23.35556,"lon":-47.85694,"country":"BR","timezone":"America/Sao_Paulo","population":93580,"capital":"false","continent":"America"}
430;Такуаритинга;{"name":"Такуаритинга","lat":-21.40611,"lon":-48.50472,"country":"BR","timezone":"America/Sao_Paulo","population":50098,"capital":"false","continent":"America"}
431;Табуау да Серра;{"name":"Табуау да Серра","lat":-23.62611,"lon":-46.79167,"country":"BR","timezone":"America/Sao_Paulo","population":214523 ,"capital":"false" ,"continent":"America"}
432;Сузано,Сузану;{"name":"Сузано","lat":-23.5425,"lon":-46.31083,"country":"BR","timezone":"America/Sao_Paulo","population":283314,"capital":"false","continent":"America"}
433;Сумаре;{"name":"Сумаре","lat":-22.82194,"lon":-47.26694,"country":"BR","timezone":"America/Sao_Paulo","population":227977,"capital":"false","continent":"America"}
434;Сорокаба;{"name":"Сорокаба","lat":-23.50167,"lon":-47.45806,"country":"BR","timezone":"America/Sao_Paulo","population":558862,"capital":"false","continent":"America"}
435;Сети-Лагоас,СетиЛагоас,Сети Лагоас;{"name":"Сети-Лагоас","lat":-19.46583,"lon":-44.24667,"country":"BR","timezone":"America/Sao_Paulo","population":201334,"capital":"false","continent":"America"}
436;Сертаузинью;{"name":"Сертаузинью","lat":-21.13778,"lon":-47.99028,"country":"BR","timezone":"America/Sao_Paulo","population":99211 ,"capital":"false" ,"continent":"America"}
437;Серра;{"name":"Серра","lat":-20.12861,"lon":-40.30778,"country":"BR","timezone":"America/Sao_Paulo","population":394153,"capital":"false","continent":"America"}
438;Серопедика;{"name":"Серопедика","lat":-22.74389,"lon":-43.7075,"country":"BR","timezone":"America/Sao_Paulo","population":54846,"capital":"false","continent":"America"}
439;Сенадор-Канеду;{"name":"Сенадор-Канеду","lat":-16.70806,"lon":-49.09306,"country":"BR","timezone":"America/Sao_Paulo","population":61800 ,"capital":"false" ,"continent":"America"}
440;Саранди;{"name":"Саранди","lat":-23.44361,"lon":-51.87389,"country":"BR","timezone":"America/Sao_Paulo","population":84697 ,"capital":"false" ,"continent":"America"}
441;Сакуарема;{"name":"Сакуарема","lat":-22.92,"lon":-42.51028,"country":"BR","timezone":"America/Sao_Paulo","population":62056 ,"capital":"false" ,"continent":"America"}
442;Сапукая;{"name":"Сапукая","lat":-29.83333,"lon":-51.15,"country":"BR","timezone":"America/Sao_Paulo","population":130937,"capital":"false","continent":"America"}
443;Сапиранга;{"name":"Сапиранга","lat":-29.63806,"lon":-51.00694,"country":"BR","timezone":"America/Sao_Paulo","population":76051 ,"capital":"false" ,"continent":"America"}
444;Сан-Висенти,СанВисенти,Сан Висенти;{"name":"Сан-Висенти","lat":-23.96306,"lon":-46.39194,"country":"BR","timezone":"America/Sao_Paulo","population":324457,"capital":"false","continent":"America"}
445;Сан-Себастьян-ду-Параисо,Сан-Себастьян-ду-Параизу,СанСебастьяндуПараисо,СанСебастьяндуПараизу,Сан Себастьян ду Параисо,Сан Себастьян ду Параизу;{"name":"Сан-Себастьян-ду-Параисо","lat":-20.91694,"lon":-46.99139,"country":"BR","timezone":"America/Sao_Paulo","population":68654,"capital":"false","continent":"America"}
446;Сан-Себастьян,СанСебастьян,Сан Себастьян;{"name":"Сан-Себастьян","lat":43.31283,"lon":-1.97499,"country":"ES","timezone":"Europe/Madrid","population":185357,"capital":"false","continent":"Europe"}
447;Сан-Роки;{"name":"Сан-Роки","lat":-23.52917,"lon":-47.13528,"country":"BR","timezone":"America/Sao_Paulo","population":50540 ,"capital":"false" ,"continent":"America"}
448;Сан-Педру-да-Алдея,СанПедрудаАлдея,Сан Педру да Алдея;{"name":"Сан-Педру-да-Алдея","lat":-22.83917,"lon":-42.10278,"country":"BR","timezone":"America/Sao_Paulo","population":55014,"capital":"false","continent":"America"}
449;Сан-Паулу,СанПаулу,Сан Паулу;{"name":"Сан-Паулу","lat":-23.5475,"lon":-46.63611,"country":"BR","timezone":"America/Sao_Paulo","population":10021295,"capital":"false","continent":"America"}
450;Сан-Матеус,СанМатеус,Сан Матеус;{"name":"Сан-Матеус","lat":-18.72011,"lon":-39.85891,"country":"BR","timezone":"America/Sao_Paulo","population":77117,"capital":"false","continent":"America"}
451;Сан-Леополду,СанЛеополду,Сан Леополду;{"name":"Сан-Леополду","lat":-29.76028,"lon":-51.14722,"country":"BR","timezone":"America/Sao_Paulo","population":209229,"capital":"false","continent":"America"}
452;Сан-Жозе-дус-Пиньяйс,СанЖозедусПиньяйс,Сан Жозе дус Пиньяйс;{"name":"Сан-Жозе-дус-Пиньяйс","lat":-25.5302,"lon":-49.20836,"country":"BR","timezone":"America/Sao_Paulo","population":124224,"capital":"false","continent":"America"}
453;Сан-Жозе-дус-Кампус,СанЖозедусКампус,Сан Жозе дус Кампус;{"name":"Сан-Жозе-дус-Кампус","lat":-23.17944,"lon":-45.88694,"country":"BR","timezone":"America/Sao_Paulo","population":613764,"capital":"false","continent":"America"}
454;Сан-Жозе-ду-Риу-Прету,СанЖозедуРиуПрету,Сан Жозе ду Риу Прету;{"name":"Сан-Жозе-ду-Риу-Прету","lat":-20.81972,"lon":-49.37944,"country":"BR","timezone":"America/Sao_Paulo","population":374699,"capital":"false","continent":"America"}
455;Сау Жозе;{"name":"Сау Жозе","lat":-28.21171,"lon":-49.1632,"country":"BR","timezone":"America/Sao_Paulo","population":200000 ,"capital":"false" ,"continent":"America"}
456;Сан-Жуан-ди-Мерити,СанЖуандиМерити,Сан Жуан ди Мерити;{"name":"Сан-Жуан-ди-Мерити","lat":-22.80389,"lon":-43.37222,"country":"BR","timezone":"America/Sao_Paulo","population":454849,"capital":"false","continent":"America"}
457;Сан-Жуан-дел-Рей,СанЖуанделРей,Сан Жуан дел Рей;{"name":"Сан-Жуан-дел-Рей","lat":-21.13556,"lon":-44.26167,"country":"BR","timezone":"America/Sao_Paulo","population":78592,"capital":"false","continent":"America"}
458;Сан-Жуан-да-Боа-Виста;{"name":"Сан-Жуан-да-Боа-Виста","lat":-21.96917,"lon":-46.79806,"country":"BR","timezone":"America/Sao_Paulo","population":76540,"capital":"false","continent":"America"}
459;Сау Габриел;{"name":"Сау Габриел","lat":-30.33639,"lon":-54.32,"country":"BR","timezone":"America/Sao_Paulo","population":55434 ,"capital":"false" ,"continent":"America"}
460;Сан-Кристован,СанКристован,Сан Кристован;{"name":"Сан-Кристован","lat":-11.01472,"lon":-37.20639,"country":"BR","timezone":"America/Maceio","population":71539,"capital":"false","continent":"America"}
461;Сан-Карлос,Сан-Карлус,СанКарлос,СанКарлус,Сан Карлос,Сан Карлус;{"name":"Сан-Карлос","lat":-22.0175,"lon":-47.89083,"country":"BR","timezone":"America/Sao_Paulo","population":205035,"capital":"false","continent":"America"}
462;Сан-Каэтано-ду-Сул,СанКаэтанодуСул,Сан Каэтано ду Сул;{"name":"Сан-Каэтано-ду-Сул","lat":-23.62306,"lon":-46.55111,"country":"BR","timezone":"America/Sao_Paulo","population":136453,"capital":"false","continent":"America"}
463;Сан-Борха,СанБорха,Сан Борха;{"name":"Сан-Борха","lat":-28.66056,"lon":-56.00444,"country":"BR","timezone":"America/Sao_Paulo","population":59613,"capital":"false","continent":"America"}
464;Сан-Бернардо-ду-Кампу,СанБернардодуКампу,Сан Бернардо ду Кампу;{"name":"Сан-Бернардо-ду-Кампу","lat":-23.69389,"lon":-46.565,"country":"BR","timezone":"America/Sao_Paulo","population":743372,"capital":"false","continent":"America"}
465;Сан-Бенту-ду-Сул,СанБентудуСул,Сан Бенту ду Сул;{"name":"Сан-Бенту-ду-Сул","lat":-26.25028,"lon":-49.37861,"country":"BR","timezone":"America/Sao_Paulo","population":77597,"capital":"false","continent":"America"}
466;Сантос,Сантус;{"name":"Сантос","lat":-23.96083,"lon":-46.33361,"country":"BR","timezone":"America/Sao_Paulo","population":411403,"capital":"false","continent":"America"}
467;Санту Антонью ди Жезуш;{"name":"Санту Антонью ди Жезуш","lat":-12.96889,"lon":-39.26139,"country":"BR","timezone":"America/Bahia","population":73957 ,"capital":"false" ,"continent":"America"}
468;Санту-Анджело,Санту-Анжелу,СантуАнджело,СантуАнжелу,Санту Анджело,Санту Анжелу;{"name":"Санту-Анджело","lat":-28.29917,"lon":-54.26306,"country":"BR","timezone":"America/Sao_Paulo","population":64606,"capital":"false","continent":"America"}
469;Санту-Андре,СантуАндре,Санту Андре;{"name":"Санту-Андре","lat":-23.66389,"lon":-46.53833,"country":"BR","timezone":"America/Sao_Paulo","population":662373,"capital":"false","continent":"America"}
470;Санта-Роза;{"name":"Санта-Роза","lat":-27.87083,"lon":-54.48139,"country":"BR","timezone":"America/Sao_Paulo","population":58957 ,"capital":"false" ,"continent":"America"}
471;Сантана-ду-Ливраменту,СантанадуЛивраменту,Сантана ду Ливраменту;{"name":"Сантана-ду-Ливраменту","lat":-30.89083,"lon":-55.53278,"country":"BR","timezone":"America/Sao_Paulo","population":89694,"capital":"false","continent":"America"}
472;Сантана ди Парнайба;{"name":"Сантана ди Парнайба","lat":-23.44417,"lon":-46.91778,"country":"BR","timezone":"America/Sao_Paulo","population":98989 ,"capital":"false" ,"continent":"America"}
473;Санта-Мария,СантаМария,Санта Мария;{"name":"Санта-Мария","lat":-29.68417,"lon":-53.80694,"country":"BR","timezone":"America/Sao_Paulo","population":249219,"capital":"false","continent":"America"}
474;Санта-Лусия,Санта-Лузия,СантаЛусия,СантаЛузия,Санта Лусия,Санта Лузия;{"name":"Санта-Лусия","lat":-19.76972,"lon":-43.85139,"country":"BR","timezone":"America/Sao_Paulo","population":243503,"capital":"false","continent":"America"}
475;Санта-Крус-ду-Сул,СантаКрусдуСул,Санта Крус ду Сул;{"name":"Санта-Крус-ду-Сул","lat":-29.7175,"lon":-52.42583,"country":"BR","timezone":"America/Sao_Paulo","population":106113,"capital":"false","continent":"America"}
476;Уэшти;{"name":"Уэшти","lat":-22.75361,"lon":-47.41361,"country":"BR","timezone":"America/Sao_Paulo","population":188000 ,"capital":"false" ,"continent":"America"}
477;Салвадор;{"name":"Салвадор","lat":-12.97111,"lon":-38.51083,"country":"BR","timezone":"America/Bahia","population":2711840,"capital":"false","continent":"America"}
478;Сальто;{"name":"Сальто","lat":-31.38333,"lon":-57.96667,"country":"UY","timezone":"America/Montevideo","population":99823,"capital":"false","continent":"America"}
479;Салту;{"name":"Салту","lat":-23.20083,"lon":-47.28694,"country":"BR","timezone":"America/Sao_Paulo","population":98387,"capital":"false","continent":"America"}
480;Рондонопулиш;{"name":"Рондонопулиш","lat":-16.47083,"lon":-54.63556,"country":"BR","timezone":"America/Cuiaba","population":152912 ,"capital":"false" ,"continent":"America"}
481;Роландия;{"name":"Роландия","lat":-23.30972,"lon":-51.36917,"country":"BR","timezone":"America/Sao_Paulo","population":51004 ,"capital":"false" ,"continent":"America"}
482;Рио-Гранде,РиоГранде,Рио Гранде;{"name":"Рио-Гранде","lat":-32.035,"lon":-52.09861,"country":"BR","timezone":"America/Sao_Paulo","population":187838,"capital":"false","continent":"America"}
483;Риу-ду-Сул,РиудуСул,Риу ду Сул;{"name":"Риу-ду-Сул","lat":-27.21417,"lon":-49.64306,"country":"BR","timezone":"America/Sao_Paulo","population":51944,"capital":"false","continent":"America"}
484;Рио-де-Жанейро,РиодеЖанейро,Рио де Жанейро;{"name":"Рио-де-Жанейро","lat":-22.90278,"lon":-43.2075,"country":"BR","timezone":"America/Sao_Paulo","population":6023699,"capital":"false","continent":"America"}
485;Риу-даз-Острас;{"name":"Риу-даз-Острас","lat":-22.52694,"lon":-41.945,"country":"BR","timezone":"America/Sao_Paulo","population":100000 ,"capital":"false" ,"continent":"America"}
486;Риу-Клару;{"name":"Риу-Клару","lat":-22.41139,"lon":-47.56139,"country":"BR","timezone":"America/Sao_Paulo","population":180147 ,"capital":"false" ,"continent":"America"}
487;Рибейран-Прету,РибейранПрету,Рибейран Прету;{"name":"Рибейран-Прету","lat":-21.1775,"lon":-47.81028,"country":"BR","timezone":"America/Sao_Paulo","population":619746,"capital":"false","continent":"America"}
488;Рибейрау Пириш;{"name":"Рибейрау Пириш","lat":-23.71056,"lon":-46.41333,"country":"BR","timezone":"America/Sao_Paulo","population":111888 ,"capital":"false" ,"continent":"America"}
489;Рибейрау даш Невиш;{"name":"Рибейрау даш Невиш","lat":-19.76694,"lon":-44.08667,"country":"BR","timezone":"America/Sao_Paulo","population":406802 ,"capital":"false" ,"continent":"America"}
490;Резенди;{"name":"Резенди","lat":-22.46889,"lon":-44.44667,"country":"BR","timezone":"America/Sao_Paulo","population":111514,"capital":"false","continent":"America"}
491;Кеймадус;{"name":"Кеймадус","lat":-22.71611,"lon":-43.55528,"country":"BR","timezone":"America/Sao_Paulo","population":135741 ,"capital":"false" ,"continent":"America"}
492;Президенти-Пруденти,ПрезидентиПруденти,Президенти Пруденти;{"name":"Президенти-Пруденти","lat":-22.12556,"lon":-51.38889,"country":"BR","timezone":"America/Sao_Paulo","population":209502,"capital":"false","continent":"America"}
493;Прайя-Гранди,Прая-Гранди,ПрайяГранди,ПраяГранди,Прайя Гранди,Прая Гранди;{"name":"Прайя-Гранди","lat":-24.00583,"lon":-46.40278,"country":"BR","timezone":"America/Sao_Paulo","population":250027,"capital":"true","continent":"America"}
494;Позу-Алегри,ПозуАлегри,Позу Алегри;{"name":"Позу-Алегри","lat":-22.23,"lon":-45.93639,"country":"BR","timezone":"America/Sao_Paulo","population":115201,"capital":"false","continent":"America"}
495;Порту-Сегуру,ПортуСегуру,Порту Сегуру;{"name":"Порту-Сегуру","lat":-16.44972,"lon":-39.06472,"country":"BR","timezone":"America/Bahia","population":123173,"capital":"false","continent":"America"}
496;Порту-Алегри,ПортуАлегри,Порту Алегри;{"name":"Порту-Алегри","lat":-30.03306,"lon":-51.23,"country":"BR","timezone":"America/Sao_Paulo","population":1372741,"capital":"false","continent":"America"}
497;Понта-Поран,ПонтаПоран,Понта Поран;{"name":"Понта-Поран","lat":-22.53611,"lon":-55.72556,"country":"BR","timezone":"America/Campo_Grande","population":55763,"capital":"false","continent":"America"}
498;Понта-Гроса,ПонтаГроса,Понта Гроса;{"name":"Понта-Гроса","lat":-25.095,"lon":-50.16194,"country":"BR","timezone":"America/Sao_Paulo","population":292177,"capital":"false","continent":"America"}
499;Посус-ди-Калдас,ПосусдиКалдас,Посус ди Калдас;{"name":"Посус-ди-Калдас","lat":-21.78778,"lon":-46.56139,"country":"BR","timezone":"America/Sao_Paulo","population":146588,"capital":"false","continent":"America"}
500;Мятлик;{"name":"Мятлик","lat":-23.52806,"lon":-46.34472,"country":"BR","timezone":"America/Sao_Paulo","population":107432 ,"capital":"false" ,"continent":"America"}
501;Планалтина;{"name":"Планалтина","lat":-15.45278,"lon":-47.61417,"country":"BR","timezone":"America/Sao_Paulo","population":88853 ,"capital":"false" ,"continent":"America"}
502;Пирапора;{"name":"Пирапора","lat":-17.345,"lon":-44.94194,"country":"BR","timezone":"America/Sao_Paulo","population":51656,"capital":"false","continent":"America"}
503;Пирасунунга;{"name":"Пирасунунга","lat":-21.99611,"lon":-47.42583,"country":"BR","timezone":"America/Sao_Paulo","population":60413,"capital":"false","continent":"America"}
504;Пирасикаба;{"name":"Пирасикаба","lat":-22.72528,"lon":-47.64917,"country":"BR","timezone":"America/Sao_Paulo","population":342209,"capital":"false","continent":"America"}
505;Пиндамоньянгаба;{"name":"Пиндамоньянгаба","lat":-22.92389,"lon":-45.46167,"country":"BR","timezone":"America/Sao_Paulo","population":132218,"capital":"false","continent":"America"}
506;Петрополис;{"name":"Петрополис","lat":-22.505,"lon":-43.17861,"country":"BR","timezone":"America/Sao_Paulo","population":272691,"capital":"false","continent":"America"}
507;Перуиби;{"name":"Перуиби","lat":-24.32,"lon":-46.99833,"country":"BR","timezone":"America/Sao_Paulo","population":63030,"capital":"false","continent":"America"}
508;Пенаполис;{"name":"Пенаполис","lat":-21.41972,"lon":-50.0775,"country":"BR","timezone":"America/Sao_Paulo","population":54477,"capital":"false","continent":"America"}
509;Пелотас;{"name":"Пелотас","lat":-31.77194,"lon":-52.3425,"country":"BR","timezone":"America/Sao_Paulo","population":320674,"capital":"false","continent":"America"}
510;Паулиния;{"name":"Паулиния","lat":-22.76111,"lon":-47.15417,"country":"BR","timezone":"America/Sao_Paulo","population":65595,"capital":"false","continent":"America"}
511;Патросиниу;{"name":"Патросиниу","lat":-18.94389,"lon":-46.9925,"country":"BR","timezone":"America/Sao_Paulo","population":71963,"capital":"false","continent":"America"}
512;Патус-ди-Минас,ПатусдиМинас,Патус ди Минас;{"name":"Патус-ди-Минас","lat":-18.57889,"lon":-46.51806,"country":"BR","timezone":"America/Sao_Paulo","population":126234,"capital":"false","continent":"America"}
513;Пату-Бранку,ПатуБранку,Пату Бранку;{"name":"Пату-Бранку","lat":-26.22861,"lon":-52.67056,"country":"BR","timezone":"America/Sao_Paulo","population":65754,"capital":"false","continent":"America"}
514;Пассос,Пасус;{"name":"Пассос","lat":-20.71889,"lon":-46.60972,"country":"BR","timezone":"America/Sao_Paulo","population":98752,"capital":"false","continent":"America"}
515;Пасу-Фунду,ПасуФунду,Пасу Фунду;{"name":"Пасу-Фунду","lat":-28.26278,"lon":-52.40667,"country":"BR","timezone":"America/Sao_Paulo","population":179529,"capital":"false","continent":"America"}
516;Паранаваи;{"name":"Паранаваи","lat":-23.07306,"lon":-52.46528,"country":"BR","timezone":"America/Sao_Paulo","population":72848 ,"capital":"false" ,"continent":"America"}
517;Паранагуа;{"name":"Паранагуа","lat":-25.51626,"lon":-48.52537,"country":"BR","timezone":"America/Sao_Paulo","population":141013,"capital":"false","continent":"America"}
518;Пара-ди-Минас,ПарадиМинас,Пара ди Минас;{"name":"Пара-ди-Минас","lat":-19.86028,"lon":-44.60833,"country":"BR","timezone":"America/Sao_Paulo","population":75786,"capital":"false","continent":"America"}
519;Паракату;{"name":"Паракату","lat":-17.22222,"lon":-46.87472,"country":"BR","timezone":"America/Sao_Paulo","population":70753,"capital":"false","continent":"America"}
520;Пальоса;{"name":"Пальоса","lat":-27.64528,"lon":-48.66778,"country":"BR","timezone":"America/Sao_Paulo","population":122423,"capital":"false","continent":"America"}
521;Ору-Прету,ОруПрету,Ору Прету;{"name":"Ору-Прету","lat":-20.39484,"lon":-43.50517,"country":"BR","timezone":"America/Sao_Paulo","population":63678,"capital":"false","continent":"America"}
522;Ориньюс;{"name":"Ориньюс","lat":-22.97889,"lon":-49.87056,"country":"BR","timezone":"America/Sao_Paulo","population":97799,"capital":"false","continent":"America"}
523;Осаску;{"name":"Осаску","lat":-23.5325,"lon":-46.79167,"country":"BR","timezone":"America/Sao_Paulo","population":677856,"capital":"false","continent":"America"}
524;Нову-Амбургу,НовуАмбургу,Нову Амбургу;{"name":"Нову-Амбургу","lat":-29.67833,"lon":-51.13056,"country":"BR","timezone":"America/Sao_Paulo","population":253841,"capital":"false","continent":"America"}
525;Нова Висоза;{"name":"Нова Висоза","lat":-17.89194,"lon":-39.37194,"country":"BR","timezone":"America/Bahia","population":55980 ,"capital":"false" ,"continent":"America"}
526;Нова-Лима,НоваЛима,Нова Лима;{"name":"Нова-Лима","lat":-19.98556,"lon":-43.84667,"country":"BR","timezone":"America/Sao_Paulo","population":88399,"capital":"false","continent":"America"}
527;Нова-Игуасу,НоваИгуасу,Нова Игуасу;{"name":"Нова-Игуасу","lat":-22.75917,"lon":-43.45111,"country":"BR","timezone":"America/Sao_Paulo","population":1002118,"capital":"false","continent":"America"}
528;Нова-Фрибургу,НоваФрибургу,Нова Фрибургу;{"name":"Нова-Фрибургу","lat":-22.28194,"lon":-42.53111,"country":"BR","timezone":"America/Sao_Paulo","population":153361,"capital":"false","continent":"America"}
529;Носа-Сеньора-ду-Сокорру;{"name":"Носа-Сеньора-ду-Сокорру","lat":-10.855,"lon":-37.12611,"country":"BR","timezone":"America/Maceio","population":163993 ,"capital":"false" ,"continent":"America"}
530;Нитерой;{"name":"Нитерой","lat":-22.88333,"lon":-43.10361,"country":"BR","timezone":"America/Sao_Paulo","population":456456,"capital":"false","continent":"America"}
531;Нилополис;{"name":"Нилополис","lat":-22.8075,"lon":-43.41389,"country":"BR","timezone":"America/Sao_Paulo","population":147281,"capital":"false","continent":"America"}
532;Муриаэ;{"name":"Муриаэ","lat":-21.13056,"lon":-42.36639,"country":"BR","timezone":"America/Sao_Paulo","population":91173,"capital":"false","continent":"America"}
533;Монтис-Кларус,МонтисКларус,Монтис Кларус;{"name":"Монтис-Кларус","lat":-16.735,"lon":-43.86167,"country":"BR","timezone":"America/Sao_Paulo","population":332379,"capital":"false","continent":"America"}
534;Черногория,Монтенегру;{"name":"Черногория","lat":-29.68861,"lon":-51.46111,"country":"BR","timezone":"America/Sao_Paulo","population":54057,"capital":"false","continent":"America"}
535;Можи-Мирин,МожиМирин,Можи Мирин;{"name":"Можи-Мирин","lat":-22.43194,"lon":-46.95778,"country":"BR","timezone":"America/Sao_Paulo","population":78244,"capital":"false","continent":"America"}
536;Можи-Гуасу,МожиГуасу,Можи Гуасу;{"name":"Можи-Гуасу","lat":-22.3677,"lon":-46.94552,"country":"BR","timezone":"America/Sao_Paulo","population":128865,"capital":"false","continent":"America"}
537;Можи-дас-Крузис;{"name":"Можи-дас-Крузис","lat":-23.52278,"lon":-46.18833,"country":"BR","timezone":"America/Sao_Paulo","population":325746 ,"capital":"false" ,"continent":"America"}
538;Мокока;{"name":"Мокока","lat":-21.46778,"lon":-47.00472,"country":"BR","timezone":"America/Sao_Paulo","population":59654 ,"capital":"false" ,"continent":"America"}
539;Мауа;{"name":"Мауа","lat":-23.66778,"lon":-46.46139,"country":"BR","timezone":"America/Sao_Paulo","population":386069,"capital":"false","continent":"America"}
540;Матау;{"name":"Матау","lat":-21.60333,"lon":-48.36583,"country":"BR","timezone":"America/Sao_Paulo","population":72468 ,"capital":"false" ,"continent":"America"}
541;Маринга;{"name":"Маринга","lat":-23.42528,"lon":-51.93861,"country":"BR","timezone":"America/Sao_Paulo","population":311724,"capital":"false","continent":"America"}
542;Марилья,Марилия;{"name":"Марилья","lat":-22.21389,"lon":-49.94583,"country":"BR","timezone":"America/Sao_Paulo","population":212218,"capital":"false","continent":"America"}
543;Марика;{"name":"Марика","lat":-22.91944,"lon":-42.81861,"country":"BR","timezone":"America/Sao_Paulo","population":79551 ,"capital":"false" ,"continent":"America"}
544;Маньюасу;{"name":"Маньюасу","lat":-20.25806,"lon":-42.03361,"country":"BR","timezone":"America/Sao_Paulo","population":54607,"capital":"false","continent":"America"}
545;Майрипоран;{"name":"Майрипоран","lat":-23.31861,"lon":-46.58667,"country":"BR","timezone":"America/Sao_Paulo","population":54415,"capital":"false","continent":"America"}
546;Макаэ;{"name":"Макаэ","lat":-22.37083,"lon":-41.78694,"country":"BR","timezone":"America/Sao_Paulo","population":143029,"capital":"false","continent":"America"}
547;Лузиания;{"name":"Лузиания","lat":-16.2525,"lon":-47.95028,"country":"BR","timezone":"America/Sao_Paulo","population":143601,"capital":"false","continent":"America"}
548;Лорена;{"name":"Лорена","lat":-22.73083,"lon":-45.12472,"country":"BR","timezone":"America/Sao_Paulo","population":76506,"capital":"false","continent":"America"}
549;Лондрина;{"name":"Лондрина","lat":-23.31028,"lon":-51.16278,"country":"BR","timezone":"America/Sao_Paulo","population":471832,"capital":"false","continent":"America"}
550;Линс;{"name":"Линс","lat":-21.67861,"lon":-49.7425,"country":"BR","timezone":"America/Sao_Paulo","population":69451,"capital":"false","continent":"America"}
551;Линьярис;{"name":"Линьярис","lat":-19.39111,"lon":-40.07222,"country":"BR","timezone":"America/Sao_Paulo","population":105075,"capital":"false","continent":"America"}
552;Лимейра;{"name":"Лимейра","lat":-22.56472,"lon":-47.40167,"country":"BR","timezone":"America/Sao_Paulo","population":289665,"capital":"false","continent":"America"}
553;Ленсойш Паулишта;{"name":"Ленсойш Паулишта","lat":-22.59861,"lon":-48.80028,"country":"BR","timezone":"America/Sao_Paulo","population":57375 ,"capital":"false" ,"continent":"America"}
554;Лем,Леми;{"name":"Лем","lat":-22.18556,"lon":-47.39028,"country":"BR","timezone":"America/Sao_Paulo","population":81209,"capital":"false","continent":"America"}
555;Лаврас;{"name":"Лаврас","lat":-21.24528,"lon":-44.99972,"country":"BR","timezone":"America/Sao_Paulo","population":81472,"capital":"false","continent":"America"}
556;Лажис;{"name":"Лажис","lat":-27.81611,"lon":-50.32611,"country":"BR","timezone":"America/Sao_Paulo","population":164676,"capital":"false","continent":"America"}
557;Лажеаду;{"name":"Лажеаду","lat":-29.46694,"lon":-51.96139,"country":"BR","timezone":"America/Sao_Paulo","population":65407,"capital":"false","continent":"America"}
558;Жундиаи;{"name":"Жундиаи","lat":-23.18639,"lon":-46.88417,"country":"BR","timezone":"America/Sao_Paulo","population":321589,"capital":"false","continent":"America"}
559;Жуис-ди-Фора,ЖуисдиФора,Жуис ди Фора;{"name":"Жуис-ди-Фора","lat":-21.76417,"lon":-43.35028,"country":"BR","timezone":"America/Sao_Paulo","population":470193,"capital":"false","continent":"America"}
560;Жоинвили;{"name":"Жоинвили","lat":-26.30444,"lon":-48.84556,"country":"BR","timezone":"America/Sao_Paulo","population":461304,"capital":"false","continent":"America"}
561;Жуан-Монлевади,ЖуанМонлевади,Жуан Монлевади;{"name":"Жуан-Монлевади","lat":-19.81,"lon":-43.17361,"country":"BR","timezone":"America/Sao_Paulo","population":72762,"capital":"false","continent":"America"}
562;Жекие;{"name":"Жекие","lat":-13.85875,"lon":-40.08512,"country":"BR","timezone":"America/Bahia","population":127475,"capital":"false","continent":"America"}
563;Жау;{"name":"Жау","lat":-22.29639,"lon":-48.55778,"country":"BR","timezone":"America/Sao_Paulo","population":119206,"capital":"false","continent":"America"}
564;Жатаи;{"name":"Жатаи","lat":-17.87939,"lon":-51.72166,"country":"BR","timezone":"America/Sao_Paulo","population":76547 ,"capital":"false" ,"continent":"America"}
565;Жарагуа-ду-Сул,ЖарагуадуСул,Жарагуа ду Сул;{"name":"Жарагуа-ду-Сул","lat":-26.48611,"lon":-49.06667,"country":"BR","timezone":"America/Sao_Paulo","population":130130,"capital":"false","continent":"America"}
566;Жапери;{"name":"Жапери","lat":-22.64306,"lon":-43.65333,"country":"BR","timezone":"America/Sao_Paulo","population":95101 ,"capital":"false" ,"continent":"America"}
567;Жандира;{"name":"Жандира","lat":-23.5275,"lon":-46.9025,"country":"BR","timezone":"America/Sao_Paulo","population":113605 ,"capital":"false" ,"continent":"America"}
568;Жанауба;{"name":"Жанауба","lat":-15.8025,"lon":-43.30889,"country":"BR","timezone":"America/Sao_Paulo","population":56572 ,"capital":"false" ,"continent":"America"}
